CLEE,Id,Nombre,Razon_social,Clase_actividad,Estrato,Tipo_vialidad,Calle,Num_Exterior,Num_Interior,Colonia,CP,Ubicacion,Telefono,Correo_e,Sitio_internet,Tipo,Longitud,Latitud,CentroComercial,TipoCentroComercial,NumLocal,State
01001722514008101000000000U2,7702727,LONCHERIA EL VAQUERO,,Restaurantes con servicio de preparación de tacos y tortas,0 a 5 personas,CALLE,WASCO,114,0,ZONA CENTRO,20000,"AGUASCALIENTES, Aguascalientes, AGUASCALIENTES",4491125120,,,Fijo,-102.29065083,21.87998632,,,,Aguascalientes
01001722514008801000000000U7,6924209,LONCHERIA RYK,,Restaurantes con servicio de preparación de tacos y tortas,0 a 5 personas,AVENIDA,LICENCIADO ADOLFO LOPEZ MATEOS PONIENTE,401,0,EL ENCINO,20240,"AGUASCALIENTES, Aguascalientes, AGUASCALIENTES",,,,Fijo,-102.29155423,21.87907014,,,,Aguascalientes
01001722212001051000000000U7,20688,TACOS AVENIDA,,Restaurantes con servicio de preparación de tacos y tortas,0 a 5 personas,AVENIDA,LICENCIADO ADOLFO LOPEZ MATEOS PONIENTE,418,,CENTRO,20000,"AGUASCALIENTES, Aguascalientes, AGUASCALIENTES",,,,Fijo,-102.29168702,21.87924402,,,,Aguascalientes
01001722518003461000000000U6,6979709,COCINA ECONOMICA MICHELLE,,Restaurantes que preparan otro tipo de alimentos para llevar,0 a 5 personas,CALLE,JOSEFA ORTIZ DE DOMINGUEZ,249,0,ZONA CENTRO,20000,"AGUASCALIENTES, Aguascalientes, AGUASCALIENTES",4494004904,,,Fijo,-102.28910925,21.87944693,,,,Aguascalientes
01001722514003121000000000U5,23425,TACOS DE CANASTA SAR,,Restaurantes con servicio de preparación de tacos y tortas,0 a 5 personas,AVENIDA,LICENCIADO ADOLFO LOPEZ MATEOS PONIENTE,449,0,EL ENCINO,20240,"AGUASCALIENTES, Aguascalientes, AGUASCALIENTES",,,,Fijo,-102.28912148,21.87923838,,,,Aguascalientes
01001722518003431000000000U9,6924254,LA COSINA DE MALU,,Restaurantes que preparan otro tipo de alimentos para llevar,0 a 5 personas,CALLE,JOSEFA ORTIZ DE DOMINGUEZ,307,0,EL ENCINO,20240,"AGUASCALIENTES, Aguascalientes, AGUASCALIENTES",,,,Fijo,-102.28910773,21.87901886,,,,Aguascalientes
01001722514001791000000000U7,23435,TORTAS AHOGADAS EL TAPATIO,,Restaurantes con servicio de preparación de tacos y tortas,0 a 5 personas,CALLE,16 DE SEPTIEMBRE,302,0,EL ENCINO,20240,"AGUASCALIENTES, Aguascalientes, AGUASCALIENTES",,,,Fijo,-102.29180240,21.87900359,,,,Aguascalientes
01001722219017551001000000U3,23609,LONCHERIA MAXX,,Restaurantes con servicio de preparación de tacos y tortas,6 a 10 personas,CALLE,16 DE SEPTIEMBRE,231,0,ZONA CENTRO,20000,"AGUASCALIENTES, Aguascalientes, AGUASCALIENTES",4492872198,,,Fijo,-102.29189077,21.87926875,,,,Aguascalientes
01001722518003471000000000U5,6979920,LICEA DESAYUNOS,,Restaurantes que preparan otro tipo de alimentos para llevar,0 a 5 personas,CALLE,16 DE SEPTIEMBRE,201,0,ZONA CENTRO,20000,"AGUASCALIENTES, Aguascalientes, AGUASCALIENTES",4491979852,LICEA.DESAYUNOS@GMAIL.COM,,Fijo,-102.29196863,21.87966377,,,,Aguascalientes
01001722219003891000000000U9,20585,CENADURIA YOLA,,Restaurantes con servicio de preparación de antojitos,0 a 5 personas,CALLE,JOSEFA ORTIZ DE DOMINGUEZ,206,0,CENTRO,20000,"AGUASCALIENTES, Aguascalientes, AGUASCALIENTES",4491007233,,,Fijo,-102.28940655,21.88065882,,,,Aguascalientes
01001722514008821000000000U5,6924257,BURRITO TORREON,,Restaurantes con servicio de preparación de tacos y tortas,0 a 5 personas,CALLE,JOSEFA ORTIZ DE DOMINGUEZ,316,0,DEL LLANITO,20240,"AGUASCALIENTES, Aguascalientes, AGUASCALIENTES",,,,Fijo,-102.28905589,21.87845605,,,,Aguascalientes
01001722513018931000000000U2,6924419,CENADURIA SIN NOMBRE,,Restaurantes con servicio de preparación de antojitos,0 a 5 personas,CALLE,JOSEFA ORTIZ DE DOMINGUEZ,,,DEL LLANITO,20240,"AGUASCALIENTES, Aguascalientes, AGUASCALIENTES",,,,Fijo,-102.28920129,21.87788618,,,,Aguascalientes
01001722219000181000000000U8,23608,CENADURIA LA CHATITA,,Restaurantes con servicio de preparación de antojitos,0 a 5 personas,CALLE,FRANCISCO JAVIER MINA,107,0,DEL ENCINO,20240,"AGUASCALIENTES, Aguascalientes, AGUASCALIENTES",4499166752,,,Fijo,-102.29275754,21.87876421,,,,Aguascalientes
01001722514000031000000000S9,23610,TACOS DE CANASTA CAPULETO,,Restaurantes con servicio de preparación de tacos y tortas,0 a 5 personas,AVENIDA,LICENCIADO ADOLFO LOPEZ MATEOS PONIENTE,308,0,ZONA CENTRO,20000,"AGUASCALIENTES, Aguascalientes, AGUASCALIENTES",4491995795,TACOSCAPULETOS_25@HOTMAIL.COM,WWW.TACOSDECANASTACAPULETO.COM,Fijo,-102.29300719,21.87912969,,,,Aguascalientes
01001722514009521000000000U0,8525337,LETS LUNCH LONCHERIA,,Restaurantes con servicio de preparación de tacos y tortas,0 a 5 personas,CALLE,JUAN DE MONTORO,402,,ZONA CENTRO,20000,"AGUASCALIENTES, Aguascalientes, AGUASCALIENTES",4493406573,LETSLUNCH1119@GMAIL.COM,,Fijo,-102.28979688,21.88186802,,,,Aguascalientes
01001722513018801000000000U7,6924204,MI LIC,,Restaurantes con servicio de preparación de antojitos,0 a 5 personas,AVENIDA,LICENCIADO ADOLFO LOPEZ MATEOS PONIENTE,321,0,DEL ENCINO,20240,"AGUASCALIENTES, Aguascalientes, AGUASCALIENTES",,,,Fijo,-102.29305271,21.87895070,,,,Aguascalientes
01001722517002751010000000U3,37583,CENADURIA DOÑA GENO,,Restaurantes con servicio de preparación de antojitos,0 a 5 personas,CALLE,JOSEFA ORTIZ DE DOMINGUEZ,435,,DEL ENCINO,20240,"AGUASCALIENTES, Aguascalientes, AGUASCALIENTES",,,,Fijo,-102.28936765,21.87682771,,,,Aguascalientes
01001722219020361000000000U2,23529,LONCHERIA EL MOLES,,Restaurantes con servicio de preparación de tacos y tortas,0 a 5 personas,CALLE,FRANCISCO G. HORNEDO,323,0,ZONA CENTRO,20000,"AGUASCALIENTES, Aguascalientes, AGUASCALIENTES",4499179343,,,Fijo,-102.29348355,21.87964555,,,,Aguascalientes
01001722212002151000000000U4,23600,LECHON GUICHO,,Restaurantes con servicio de preparación de tacos y tortas,0 a 5 personas,AVENIDA,LICENCIADO ADOLFO LOPEZ MATEOS PONIENTE,307,0,DEL ENCINO,20240,"AGUASCALIENTES, Aguascalientes, AGUASCALIENTES",,,,Fijo,-102.29343279,21.87888943,,,,Aguascalientes
01001722511003042000000000S9,8540513,WINGS AIR FORCE,,Restaurantes con servicio de preparación de alimentos a la carta o de comida corrida,6 a 10 personas,AVENIDA,FRANCISCO I. MADERO,,,ZONA CENTRO,20000,"AGUASCALIENTES, Aguascalientes, AGUASCALIENTES",,WINGSAIRFORCE@HOTMAIL.COM,,Fijo,-102.29120929,21.88234637,,,,Aguascalientes
01001722513001301000000000U7,37256,LOS ANTOJOS DE LA PANZA,,Restaurantes con servicio de preparación de antojitos,0 a 5 personas,CALLE,RIO RHIN,239,0,ZONA CENTRO,20000,"AGUASCALIENTES, Aguascalientes, AGUASCALIENTES",,,,Fijo,-102.28739505,21.88049393,,,,Aguascalientes
01001722511002243000000000U4,7702725,HELLS KITCHEN,,Restaurantes con servicio de preparación de alimentos a la carta o de comida corrida,11 a 30 personas,AVENIDA,FRANCISCO I. MADERO,347,,ZONA CENTRO,20000,"AGUASCALIENTES, Aguascalientes, AGUASCALIENTES",,,,Fijo,-102.29080895,21.88245169,,,,Aguascalientes
01001722511003053000000000U6,8540515,GRUPO QUINTO BARRIO,,Restaurantes con servicio de preparación de alimentos a la carta o de comida corrida,11 a 30 personas,AVENIDA,FRANCISCO I. MADERO,347,,ZONA CENTRO,20000,"AGUASCALIENTES, Aguascalientes, AGUASCALIENTES",4493580261,GRUPOQUINTOBARRIO@GMAIL.COM,,Fijo,-102.29080895,21.88245169,,,,Aguascalientes
01001722516000951000000000U3,7700869,BATTA SUSHI AND RAMEN,,Restaurantes de autoservicio,0 a 5 personas,AVENIDA,FRANCISCO I. MADERO,347,,ZONA CENTRO,20000,"AGUASCALIENTES, Aguascalientes, AGUASCALIENTES",4494130753,REDES.BATTA@GMAIL.COM,,Fijo,-102.29080895,21.88245169,,,,Aguascalientes
01001722219010821000000000U7,23812,GORDITAS REBE,,Restaurantes con servicio de preparación de antojitos,0 a 5 personas,CALLE,JOSEFA ORTIZ DE DOMINGUEZ,448,,EL LLANITO,20240,"AGUASCALIENTES, Aguascalientes, AGUASCALIENTES",,,,Fijo,-102.28931337,21.87660721,,,,Aguascalientes
01001722516001211000000000U1,8540516,BURGUER ME RESTAURANT,,"Restaurantes con servicio de preparación de pizzas, hamburguesas, hot dogs y pollos rostizados para llevar",0 a 5 personas,AVENIDA,FRANCISCO I. MADERO,353,,ZONA CENTRO,20000,"AGUASCALIENTES, Aguascalientes, AGUASCALIENTES",,BURGER.ME.AGS@GMAIL.COM,,Fijo,-102.29065460,21.88249231,,,,Aguascalientes
01001722513018991000000000U6,6979762,GORDITAS ESTERCITA,,Restaurantes con servicio de preparación de antojitos,0 a 5 personas,CALLE,BERLIN,201,0,ZONA CENTRO,20000,"AGUASCALIENTES, Aguascalientes, AGUASCALIENTES",4492559002,,,Fijo,-102.28732851,21.88061769,,,,Aguascalientes
01001722511002272000000000S3,7702933,LA CREPERIA FD REV,,Restaurantes con servicio de preparación de alimentos a la carta o de comida corrida,6 a 10 personas,AVENIDA,FRANCISCO I. MADERO,326,,ZONA CENTRO,20000,"AGUASCALIENTES, Aguascalientes, AGUASCALIENTES",,MADERO@LACREPERIA.MX,WWW.LACREPERIA.MX,Fijo,-102.29167197,21.88237266,,,,Aguascalientes
01001722219012261000000000S4,23527,LECHON PASCUALITO,,Restaurantes con servicio de preparación de antojitos,0 a 5 personas,CALLE,DOCTOR JESUS DIAZ DE LEON,208,0,ZONA CENTRO,20000,"AGUASCALIENTES, Aguascalientes, AGUASCALIENTES",,,,Fijo,-102.29379406,21.87916331,,,,Aguascalientes
01001722219017611000000000U5,23708,LONCHERIA,,Restaurantes con servicio de preparación de tacos y tortas,0 a 5 personas,CALLE,DOCTOR JESUS DIAZ DE LEON,337,0,DEL ENCINO,20240,"AGUASCALIENTES, Aguascalientes, AGUASCALIENTES",,,,Fijo,-102.29338802,21.87770659,,,,Aguascalientes
01001722513001901000000000U4,37478,GORDITAS LOLITA,,Restaurantes con servicio de preparación de antojitos,0 a 5 personas,CALLE,DOCTOR JESUS DIAZ DE LEON,207,,ZONA CENTRO,20000,"AGUASCALIENTES, Aguascalientes, AGUASCALIENTES",4499158814,,,Fijo,-102.29393486,21.87926049,,,,Aguascalientes
01001722512001211000000000U0,6923885,EL ZAR DEL CAMARON,,Restaurantes con servicio de preparación de pescados y mariscos,0 a 5 personas,CALLE,GENERAL IGNACIO ZARAGOZA,204,,ZONA CENTRO,20000,"AGUASCALIENTES, Aguascalientes, AGUASCALIENTES",,PASTORXD345@GMAIL.COM,,Fijo,-102.29041147,21.88275896,,,,Aguascalientes
01001722514008161000000000U6,7703034,LONCHERIA LA BOLILLERIA,,Restaurantes con servicio de preparación de tacos y tortas,0 a 5 personas,AVENIDA,FRANCISCO I. MADERO,408,,ZONA CENTRO,20000,"AGUASCALIENTES, Aguascalientes, AGUASCALIENTES",,,,Fijo,-102.29014204,21.88275195,,,,Aguascalientes
01001722513018571000000000U6,6923887,GORDITAS MORELOS,,Restaurantes con servicio de preparación de antojitos,0 a 5 personas,AVENIDA,FRANCISCO I. MADERO,312,,ZONA CENTRO,20000,"AGUASCALIENTES, Aguascalientes, AGUASCALIENTES",4491811609,,,Fijo,-102.29249500,21.88215376,,,,Aguascalientes
01001722517004532000046546S5,8524916,BENEDETTIS PIZZA,PIZZAS INCREIBLES SA DE CV,Restaurantes de autoservicio,6 a 10 personas,AVENIDA,FRANCISCO I. MADERO,308,,ZONA CENTRO,20000,"AGUASCALIENTES, Aguascalientes, AGUASCALIENTES",,UB16MADERO@HOTMAIL.COM,WWW.BENEDETTIS.COM,Fijo,-102.29264041,21.88211508,,,,Aguascalientes
01001722110001103000000000U2,20840,LAS ANTORCHAS,,Restaurantes con servicio de preparación de alimentos a la carta o de comida corrida,11 a 30 personas,AVENIDA,FRANCISCO I. MADERO,240,0,ZONA CENTRO,20000,"AGUASCALIENTES, Aguascalientes, AGUASCALIENTES",,,,Fijo,-102.29297541,21.88202943,,,,Aguascalientes
01001722212006711010000000U1,20543,EL GRAN TAQUITO,,Restaurantes con servicio de preparación de tacos y tortas,0 a 5 personas,CALLE,JUAN DE MONTORO,471,0,ZONA CENTRO,20000,"AGUASCALIENTES, Aguascalientes, AGUASCALIENTES",4491833610,,,Fijo,-102.28792512,21.88210034,,,,Aguascalientes
01001722511000883001000000U9,24869,LA MADERO,,Restaurantes con servicio de preparación de alimentos a la carta o de comida corrida,6 a 10 personas,AVENIDA,FRANCISCO I. MADERO,237,,ZONA CENTRO,20000,"AGUASCALIENTES, Aguascalientes, AGUASCALIENTES",,,,Fijo,-102.29328999,21.88178764,,,,Aguascalientes
01001722513018721000000000U7,6924102,GORDITAS SIN NOMBRE,,Restaurantes con servicio de preparación de antojitos,0 a 5 personas,CALLE,SOLEDAD,210,,DEL LLANITO,20240,"AGUASCALIENTES, Aguascalientes, AGUASCALIENTES",,,,Fijo,-102.28747728,21.87713908,,,,Aguascalientes
01001722219019781000000000U4,23541,BIRRIERIA GONZALEZ,,Restaurantes con servicio de preparación de antojitos,0 a 5 personas,CALLE,DOCTOR JESUS DIAZ DE LEON,109,,ZONA CENTRO,20000,"AGUASCALIENTES, Aguascalientes, AGUASCALIENTES",,,,Fijo,-102.29422995,21.88007513,,,,Aguascalientes
01001722514004781001000000U5,37469,LECHON PASCUALITO,,Restaurantes con servicio de preparación de tacos y tortas,6 a 10 personas,CALLE,DOCTOR JESUS DIAZ DE LEON,101,,ZONA CENTRO,20000,"AGUASCALIENTES, Aguascalientes, AGUASCALIENTES",,GUERITO-36@HOTMAIL.COM,,Fijo,-102.29424218,21.88010987,,,,Aguascalientes
01001722518001871000000000U8,37391,COCINA ECONÓMICA,,Restaurantes que preparan otro tipo de alimentos para llevar,0 a 5 personas,CALLE,5 DE FEBRERO,512,,DEL LLANITO,20240,"AGUASCALIENTES, Aguascalientes, AGUASCALIENTES",,,,Fijo,-102.28720844,21.87739642,,,,Aguascalientes
01001722219023052001000000U4,20919,RESTAURANTE MITLA,RESTAURANTE MITLEQUITOS S DE RL DE CV,Restaurantes con servicio de preparación de alimentos a la carta o de comida corrida,6 a 10 personas,AVENIDA,FRANCISCO I. MADERO,222,0,ZONA CENTRO,20000,"AGUASCALIENTES, Aguascalientes, AGUASCALIENTES",4491452041,,,Fijo,-102.29339226,21.88192363,,,,Aguascalientes
01001722511002601000000000U3,6979598,CASA MONTORO,,Restaurantes con servicio de preparación de alimentos a la carta o de comida corrida,0 a 5 personas,CALLE,JUAN DE MONTORO,203,,ZONA CENTRO,20000,"AGUASCALIENTES, Aguascalientes, AGUASCALIENTES",,,,Fijo,-102.29410199,21.88089839,,,,Aguascalientes
01001722513017591000000000U5,7700865,HUARACHE VELOS ESTILO DF COCINA ECONOMICA,,Restaurantes con servicio de preparación de antojitos,0 a 5 personas,CALLE,FRANCISCO G. HORNEDO,219,,ZONA CENTRO,20000,"AGUASCALIENTES, Aguascalientes, AGUASCALIENTES",4494051004,,,Fijo,-102.29453719,21.87925465,,,,Aguascalientes
01001722518003291000000000U7,6923113,COCINA ECONOMICA @.COM.ER,,Restaurantes que preparan otro tipo de alimentos para llevar,0 a 5 personas,CALLE,GONZALEZ SARACHO,102,,ZONA CENTRO,20000,"AGUASCALIENTES, Aguascalientes, AGUASCALIENTES",,,,Fijo,-102.29276217,21.88267625,,,,Aguascalientes
01001722511002981000000000U9,8525079,RESTAURANTE LOS ALAMBRES,,Restaurantes con servicio de preparación de alimentos a la carta o de comida corrida,0 a 5 personas,AVENIDA,FRANCISCO I. MADERO,448,,ZONA CENTRO,20000,"AGUASCALIENTES, Aguascalientes, AGUASCALIENTES",,,,Fijo,-102.28887068,21.88312071,,,,Aguascalientes
01001722514008411000000000U5,6923114,TAQUERIA EL RINCON DE LA BARBACOA,,Restaurantes con servicio de preparación de tacos y tortas,0 a 5 personas,CALLE,GENERAL IGNACIO ZARAGOZA,221,,ZONA CENTRO,20000,"AGUASCALIENTES, Aguascalientes, AGUASCALIENTES",,,,Fijo,-102.29060647,21.88343457,,,,Aguascalientes
01001722219019421000000000U7,20657,LONCHERIA EL MONO,,Restaurantes con servicio de preparación de tacos y tortas,0 a 5 personas,AVENIDA,LICENCIADO ADOLFO LOPEZ MATEOS PONIENTE,616,0,CENTRO,20000,"AGUASCALIENTES, Aguascalientes, AGUASCALIENTES",,,,Fijo,-102.28605873,21.87920046,,,,Aguascalientes
01001722517002792000000000U7,36254,IL RE ITALIANO,,"Restaurantes con servicio de preparación de pizzas, hamburguesas, hot dogs y pollos rostizados para llevar",6 a 10 personas,CALLE,GENERAL IGNACIO ZARAGOZA,232,0,ZONA CENTRO,20000,"AGUASCALIENTES, Aguascalientes, AGUASCALIENTES",,,,Fijo,-102.29078755,21.88355840,,,,Aguascalientes
01001722511002971000000000U0,8525045,LONCHERIA SIN NOMBRE,,Restaurantes con servicio de preparación de alimentos a la carta o de comida corrida,0 a 5 personas,CALLE,COSIO SUR,312,,EL LLANITO,20240,"AGUASCALIENTES, Aguascalientes, AGUASCALIENTES",,,,Fijo,-102.28609864,21.87854105,,,,Aguascalientes
01001722517001791000000000U0,37402,ROSTICERÍA MR POLLO,,"Restaurantes con servicio de preparación de pizzas, hamburguesas, hot dogs y pollos rostizados para llevar",0 a 5 personas,CALLE,SOLEDAD,229,,EL LLANITO,20240,"AGUASCALIENTES, Aguascalientes, AGUASCALIENTES",4499188381,,,Fijo,-102.28700653,21.87681883,,,,Aguascalientes
01001722514004391000000000U3,37376,TACOS LUIS,,Restaurantes con servicio de preparación de tacos y tortas,0 a 5 personas,CALLE,COSIO SUR,302,,DEL LLANITO,20240,"AGUASCALIENTES, Aguascalientes, AGUASCALIENTES",4491284342,,,Fijo,-102.28597121,21.87898099,,,,Aguascalientes
01001722513018611000000000U0,6923936,LONCHERIA LA MORDIDA,,Restaurantes con servicio de preparación de antojitos,0 a 5 personas,CALLE,GONZALEZ SARACHO,126,,ZONA CENTRO,20000,"AGUASCALIENTES, Aguascalientes, AGUASCALIENTES",4492206363,,,Fijo,-102.29087161,21.88363506,,,,Aguascalientes
01001722514009481000000000U7,8525048,LONCHERIA LA IDEAL,,Restaurantes con servicio de preparación de tacos y tortas,0 a 5 personas,AVENIDA,LICENCIADO ADOLFO LOPEZ MATEOS PONIENTE,701,,EL LLANITO,20240,"AGUASCALIENTES, Aguascalientes, AGUASCALIENTES",,,,Fijo,-102.28593118,21.87899709,,,,Aguascalientes
01001722514008951000000000U0,6979772,LONCHERIA SIN NOMBRE,,Restaurantes con servicio de preparación de tacos y tortas,0 a 5 personas,CALLE,COSIO SUR,204,,LA PURISIMA,20259,"AGUASCALIENTES, Aguascalientes, AGUASCALIENTES",4492442044,,,Fijo,-102.28645840,21.88153824,,,,Aguascalientes
01001722511002291000000000U3,7703051,RINCON COLOMBIANO,,Restaurantes con servicio de preparación de alimentos a la carta o de comida corrida,0 a 5 personas,CALLE,CRISTOBAL COLON,306,0,DEL ENCINO,20240,"AGUASCALIENTES, Aguascalientes, AGUASCALIENTES",,,,Fijo,-102.29485183,21.87844021,,,,Aguascalientes
01001722518003561000000000U3,8196094,TORTAS LA CHINITA,,Restaurantes con servicio de preparación de tacos y tortas,0 a 5 personas,CALLE,MAESTRO MIGUEL MENESES,102,,LA PURISIMA,20259,"AGUASCALIENTES, Aguascalientes, AGUASCALIENTES",,,,Fijo,-102.28582998,21.87966387,,,,Aguascalientes
01001722511002641000000000U9,6979771,HOLYVEGAN,,Restaurantes con servicio de preparación de alimentos a la carta o de comida corrida,0 a 5 personas,CALLE,FRANCISCO G. HORNEDO,602,,LA PURISIMA,20259,"AGUASCALIENTES, Aguascalientes, AGUASCALIENTES",4499089754,HOLYVEGAN602@GMAIL.COM,,Fijo,-102.28647292,21.88168470,,,,Aguascalientes
01001722219009931000000000U7,23545,LONCHERIA EL MONO,,Restaurantes con servicio de preparación de tacos y tortas,0 a 5 personas,CALLE,FRANCISCO G. HORNEDO,202,,ZONA CENTRO,20000,"AGUASCALIENTES, Aguascalientes, AGUASCALIENTES",,,,Fijo,-102.29501093,21.87915846,,,,Aguascalientes
01001722517003951000000000U8,8094229,GUITARS BURGER,,"Restaurantes con servicio de preparación de pizzas, hamburguesas, hot dogs y pollos rostizados para llevar",0 a 5 personas,AVENIDA,FRANCISCO I. MADERO,475,,ZONA CENTRO,20000,"AGUASCALIENTES, Aguascalientes, AGUASCALIENTES",4492592517,GUITAR.S_BURGER@HOTMAIL.COM,,Fijo,-102.28812344,21.88319575,,,,Aguascalientes
01001722517004551000000000U5,8525044,PIZZA BELLA,,"Restaurantes con servicio de preparación de pizzas, hamburguesas, hot dogs y pollos rostizados para llevar",0 a 5 personas,AVENIDA,LICENCIADO ADOLFO LOPEZ MATEOS PONIENTE,,,EL LLANITO,20240,"AGUASCALIENTES, Aguascalientes, AGUASCALIENTES",,,,Fijo,-102.28580328,21.87898354,,,,Aguascalientes
01001722513018771000000000U2,6924154,VENTA DE JUGOS Y CENADURIA,,Restaurantes con servicio de preparación de antojitos,0 a 5 personas,CALLE,5 DE FEBRERO,528,,DEL LLANITO,20240,"AGUASCALIENTES, Aguascalientes, AGUASCALIENTES",,,,Fijo,-102.28645512,21.87717252,,,,Aguascalientes
01001722514007271000000000U4,8094230,TAQUEANDO,,Restaurantes con servicio de preparación de tacos y tortas,0 a 5 personas,AVENIDA,FRANCISCO I. MADERO,479,,ZONA CENTRO,20000,"AGUASCALIENTES, Aguascalientes, AGUASCALIENTES",4491112485,TAQUEANDOAGS@GMAIL.COM,,Fijo,-102.28805735,21.88321445,,,,Aguascalientes
01001722511003033000000000U8,8540417,MERCADITO GASTRONOMICO COLON,,Restaurantes con servicio de preparación de alimentos a la carta o de comida corrida,11 a 30 personas,CALLE,CRISTOBAL COLON,132,,ZONA CENTRO,20000,"AGUASCALIENTES, Aguascalientes, AGUASCALIENTES",,SINTANTITAPENA@LIVE.COM.MX,,Fijo,-102.29507934,21.87920482,,,,Aguascalientes
01001722219024142000000000U2,20530,EL SOPECITO,,Restaurantes con servicio de preparación de antojitos,6 a 10 personas,CALLE,COSIO SUR,105,0,ZONA CENTRO,20000,"AGUASCALIENTES, Aguascalientes, AGUASCALIENTES",4493529801,,,Fijo,-102.28680187,21.88225612,,,,Aguascalientes
01001722518003191000000000S9,7700860,LA FONDITA,,Restaurantes que preparan otro tipo de alimentos para llevar,0 a 5 personas,CALLE,CRISTOBAL COLON,203,0,ZONA CENTRO,20000,"AGUASCALIENTES, Aguascalientes, AGUASCALIENTES",4494972082,,,Fijo,-102.29508042,21.87894468,,,,Aguascalientes
01001722514009171000000000U4,8195948,QUE HAY CARNAL TAQUERIA,,Restaurantes con servicio de preparación de tacos y tortas,0 a 5 personas,CALLE,CRISTOBAL COLON,115,,ZONA CENTRO,20000,"AGUASCALIENTES, Aguascalientes, AGUASCALIENTES",4499509933,,,Fijo,-102.29512625,21.87912551,,,,Aguascalientes
01001722212000331001000000U4,23619,CARNITAS CHANOY,,Restaurantes con servicio de preparación de tacos y tortas,6 a 10 personas,CALLE,JUAN DE MONTORO,109,,ZONA CENTRO,20000,"AGUASCALIENTES, Aguascalientes, AGUASCALIENTES",,,,Fijo,-102.29503285,21.88053735,,,,Aguascalientes
01001722513018921000000000U3,6924411,ANTOJITOS COLON,,Restaurantes con servicio de preparación de antojitos,0 a 5 personas,CALLE,CRISTOBAL COLON,113,,ZONA CENTRO,20000,"AGUASCALIENTES, Aguascalientes, AGUASCALIENTES",4495497443,,,Fijo,-102.29517023,21.87925439,,,,Aguascalientes
01001722513018901000000000U5,6924374,ANTOJOS LOS TRES LUCEROS,,Restaurantes con servicio de preparación de antojitos,0 a 5 personas,CALLE,16 DE SEPTIEMBRE,522,,EL ENCINO,20240,"AGUASCALIENTES, Aguascalientes, AGUASCALIENTES",,,,Fijo,-102.29098460,21.87504041,,,,Aguascalientes
01001722513006071000000000U1,37443,POZOLE TOÑITA,,Restaurantes con servicio de preparación de antojitos,0 a 5 personas,CALLE,5 DE FEBRERO,547,,DEL LLANITO,20240,"AGUASCALIENTES, Aguascalientes, AGUASCALIENTES",4492098073,,,Fijo,-102.28637656,21.87708154,,,,Aguascalientes
01001722513000981000000000U7,24331,GORDITAS SIN NOMBRE,,Restaurantes con servicio de preparación de antojitos,0 a 5 personas,CALLE,COSIO SUR,606,,DEL LLANITO,20240,"AGUASCALIENTES, Aguascalientes, AGUASCALIENTES",4491066935,NATY_SWET@YAHOO.COM.MX,,Fijo,-102.28659648,21.87678242,,,,Aguascalientes
01001722517005171000000000U1,9159739,HAMBURQUESERIA NOMADAS,,"Restaurantes con servicio de preparación de pizzas, hamburguesas, hot dogs y pollos rostizados para llevar",0 a 5 personas,CALLE,COSIO SUR,100,,ZONA CENTRO,20000,"AGUASCALIENTES, Aguascalientes, AGUASCALIENTES",4492650587,,,Fijo,-102.28692382,21.88252912,,,,Aguascalientes
01001722219022092000000000U1,23802,LA PLAZUELA ANTOJITOS MEXICANOS,,Restaurantes con servicio de preparación de antojitos,6 a 10 personas,CALLE,DOCTOR JESUS DIAZ DE LEON,460,,DEL ENCINO,20240,"AGUASCALIENTES, Aguascalientes, AGUASCALIENTES",,AMELIA009@HOTMAIL.COM,,Fijo,-102.29260031,21.87546528,,,,Aguascalientes
01001722513017931000000000U3,8434455,GORDITAS MARAVILLAS,,Restaurantes con servicio de preparación de antojitos,0 a 5 personas,CALLE,CRISTOBAL COLON,122,,ZONA CENTRO,20000,"AGUASCALIENTES, Aguascalientes, AGUASCALIENTES",,,,Fijo,-102.29523697,21.87975419,,,,Aguascalientes
01001722511002531000000000U2,6923970,REMOLACHA SALASDS & MORE,,Restaurantes con servicio de preparación de alimentos a la carta o de comida corrida,0 a 5 personas,CALLE,JUAN DE MONTORO,114,0,ZONA CENTRO,20000,"AGUASCALIENTES, Aguascalientes, AGUASCALIENTES",4493443053,,WWW.REMOLACHASALDSMORE,Fijo,-102.29508195,21.88063075,EDIFICIO CASTILLA,EDIFICIO COMERCIAL Y DE SERVICIOS,114,Aguascalientes
01001722514008101000000000U2,7702727,LONCHERIA EL VAQUERO,,Restaurantes con servicio de preparación de tacos y tortas,0 a 5 personas,CALLE,WASCO,114,0,ZONA CENTRO,20000,"AGUASCALIENTES, Aguascalientes, AGUASCALIENTES",4491125120,,,Fijo,-102.29065083,21.87998632,,,,Aguascalientes
01001722514008801000000000U7,6924209,LONCHERIA RYK,,Restaurantes con servicio de preparación de tacos y tortas,0 a 5 personas,AVENIDA,LICENCIADO ADOLFO LOPEZ MATEOS PONIENTE,401,0,EL ENCINO,20240,"AGUASCALIENTES, Aguascalientes, AGUASCALIENTES",,,,Fijo,-102.29155423,21.87907014,,,,Aguascalientes
01001722212001051000000000U7,20688,TACOS AVENIDA,,Restaurantes con servicio de preparación de tacos y tortas,0 a 5 personas,AVENIDA,LICENCIADO ADOLFO LOPEZ MATEOS PONIENTE,418,,CENTRO,20000,"AGUASCALIENTES, Aguascalientes, AGUASCALIENTES",,,,Fijo,-102.29168702,21.87924402,,,,Aguascalientes
01001722518003461000000000U6,6979709,COCINA ECONOMICA MICHELLE,,Restaurantes que preparan otro tipo de alimentos para llevar,0 a 5 personas,CALLE,JOSEFA ORTIZ DE DOMINGUEZ,249,0,ZONA CENTRO,20000,"AGUASCALIENTES, Aguascalientes, AGUASCALIENTES",4494004904,,,Fijo,-102.28910925,21.87944693,,,,Aguascalientes
01001722514003121000000000U5,23425,TACOS DE CANASTA SAR,,Restaurantes con servicio de preparación de tacos y tortas,0 a 5 personas,AVENIDA,LICENCIADO ADOLFO LOPEZ MATEOS PONIENTE,449,0,EL ENCINO,20240,"AGUASCALIENTES, Aguascalientes, AGUASCALIENTES",,,,Fijo,-102.28912148,21.87923838,,,,Aguascalientes
01001722518003431000000000U9,6924254,LA COSINA DE MALU,,Restaurantes que preparan otro tipo de alimentos para llevar,0 a 5 personas,CALLE,JOSEFA ORTIZ DE DOMINGUEZ,307,0,EL ENCINO,20240,"AGUASCALIENTES, Aguascalientes, AGUASCALIENTES",,,,Fijo,-102.28910773,21.87901886,,,,Aguascalientes
01001722514001791000000000U7,23435,TORTAS AHOGADAS EL TAPATIO,,Restaurantes con servicio de preparación de tacos y tortas,0 a 5 personas,CALLE,16 DE SEPTIEMBRE,302,0,EL ENCINO,20240,"AGUASCALIENTES, Aguascalientes, AGUASCALIENTES",,,,Fijo,-102.29180240,21.87900359,,,,Aguascalientes
01001722219017551001000000U3,23609,LONCHERIA MAXX,,Restaurantes con servicio de preparación de tacos y tortas,6 a 10 personas,CALLE,16 DE SEPTIEMBRE,231,0,ZONA CENTRO,20000,"AGUASCALIENTES, Aguascalientes, AGUASCALIENTES",4492872198,,,Fijo,-102.29189077,21.87926875,,,,Aguascalientes
01001722518003471000000000U5,6979920,LICEA DESAYUNOS,,Restaurantes que preparan otro tipo de alimentos para llevar,0 a 5 personas,CALLE,16 DE SEPTIEMBRE,201,0,ZONA CENTRO,20000,"AGUASCALIENTES, Aguascalientes, AGUASCALIENTES",4491979852,LICEA.DESAYUNOS@GMAIL.COM,,Fijo,-102.29196863,21.87966377,,,,Aguascalientes
01001722219003891000000000U9,20585,CENADURIA YOLA,,Restaurantes con servicio de preparación de antojitos,0 a 5 personas,CALLE,JOSEFA ORTIZ DE DOMINGUEZ,206,0,CENTRO,20000,"AGUASCALIENTES, Aguascalientes, AGUASCALIENTES",4491007233,,,Fijo,-102.28940655,21.88065882,,,,Aguascalientes
01001722514008821000000000U5,6924257,BURRITO TORREON,,Restaurantes con servicio de preparación de tacos y tortas,0 a 5 personas,CALLE,JOSEFA ORTIZ DE DOMINGUEZ,316,0,DEL LLANITO,20240,"AGUASCALIENTES, Aguascalientes, AGUASCALIENTES",,,,Fijo,-102.28905589,21.87845605,,,,Aguascalientes
01001722513018931000000000U2,6924419,CENADURIA SIN NOMBRE,,Restaurantes con servicio de preparación de antojitos,0 a 5 personas,CALLE,JOSEFA ORTIZ DE DOMINGUEZ,,,DEL LLANITO,20240,"AGUASCALIENTES, Aguascalientes, AGUASCALIENTES",,,,Fijo,-102.28920129,21.87788618,,,,Aguascalientes
01001722219000181000000000U8,23608,CENADURIA LA CHATITA,,Restaurantes con servicio de preparación de antojitos,0 a 5 personas,CALLE,FRANCISCO JAVIER MINA,107,0,DEL ENCINO,20240,"AGUASCALIENTES, Aguascalientes, AGUASCALIENTES",4499166752,,,Fijo,-102.29275754,21.87876421,,,,Aguascalientes
01001722514000031000000000S9,23610,TACOS DE CANASTA CAPULETO,,Restaurantes con servicio de preparación de tacos y tortas,0 a 5 personas,AVENIDA,LICENCIADO ADOLFO LOPEZ MATEOS PONIENTE,308,0,ZONA CENTRO,20000,"AGUASCALIENTES, Aguascalientes, AGUASCALIENTES",4491995795,TACOSCAPULETOS_25@HOTMAIL.COM,WWW.TACOSDECANASTACAPULETO.COM,Fijo,-102.29300719,21.87912969,,,,Aguascalientes
01001722514009521000000000U0,8525337,LETS LUNCH LONCHERIA,,Restaurantes con servicio de preparación de tacos y tortas,0 a 5 personas,CALLE,JUAN DE MONTORO,402,,ZONA CENTRO,20000,"AGUASCALIENTES, Aguascalientes, AGUASCALIENTES",4493406573,LETSLUNCH1119@GMAIL.COM,,Fijo,-102.28979688,21.88186802,,,,Aguascalientes
01001722513018801000000000U7,6924204,MI LIC,,Restaurantes con servicio de preparación de antojitos,0 a 5 personas,AVENIDA,LICENCIADO ADOLFO LOPEZ MATEOS PONIENTE,321,0,DEL ENCINO,20240,"AGUASCALIENTES, Aguascalientes, AGUASCALIENTES",,,,Fijo,-102.29305271,21.87895070,,,,Aguascalientes
01001722517002751010000000U3,37583,CENADURIA DOÑA GENO,,Restaurantes con servicio de preparación de antojitos,0 a 5 personas,CALLE,JOSEFA ORTIZ DE DOMINGUEZ,435,,DEL ENCINO,20240,"AGUASCALIENTES, Aguascalientes, AGUASCALIENTES",,,,Fijo,-102.28936765,21.87682771,,,,Aguascalientes
01001722219020361000000000U2,23529,LONCHERIA EL MOLES,,Restaurantes con servicio de preparación de tacos y tortas,0 a 5 personas,CALLE,FRANCISCO G. HORNEDO,323,0,ZONA CENTRO,20000,"AGUASCALIENTES, Aguascalientes, AGUASCALIENTES",4499179343,,,Fijo,-102.29348355,21.87964555,,,,Aguascalientes
01001722212002151000000000U4,23600,LECHON GUICHO,,Restaurantes con servicio de preparación de tacos y tortas,0 a 5 personas,AVENIDA,LICENCIADO ADOLFO LOPEZ MATEOS PONIENTE,307,0,DEL ENCINO,20240,"AGUASCALIENTES, Aguascalientes, AGUASCALIENTES",,,,Fijo,-102.29343279,21.87888943,,,,Aguascalientes
01001722511003042000000000S9,8540513,WINGS AIR FORCE,,Restaurantes con servicio de preparación de alimentos a la carta o de comida corrida,6 a 10 personas,AVENIDA,FRANCISCO I. MADERO,,,ZONA CENTRO,20000,"AGUASCALIENTES, Aguascalientes, AGUASCALIENTES",,WINGSAIRFORCE@HOTMAIL.COM,,Fijo,-102.29120929,21.88234637,,,,Aguascalientes
01001722513001301000000000U7,37256,LOS ANTOJOS DE LA PANZA,,Restaurantes con servicio de preparación de antojitos,0 a 5 personas,CALLE,RIO RHIN,239,0,ZONA CENTRO,20000,"AGUASCALIENTES, Aguascalientes, AGUASCALIENTES",,,,Fijo,-102.28739505,21.88049393,,,,Aguascalientes
01001722516000951000000000U3,7700869,BATTA SUSHI AND RAMEN,,Restaurantes de autoservicio,0 a 5 personas,AVENIDA,FRANCISCO I. MADERO,347,,ZONA CENTRO,20000,"AGUASCALIENTES, Aguascalientes, AGUASCALIENTES",4494130753,REDES.BATTA@GMAIL.COM,,Fijo,-102.29080895,21.88245169,,,,Aguascalientes
01001722511003053000000000U6,8540515,GRUPO QUINTO BARRIO,,Restaurantes con servicio de preparación de alimentos a la carta o de comida corrida,11 a 30 personas,AVENIDA,FRANCISCO I. MADERO,347,,ZONA CENTRO,20000,"AGUASCALIENTES, Aguascalientes, AGUASCALIENTES",4493580261,GRUPOQUINTOBARRIO@GMAIL.COM,,Fijo,-102.29080895,21.88245169,,,,Aguascalientes
01001722511002243000000000U4,7702725,HELLS KITCHEN,,Restaurantes con servicio de preparación de alimentos a la carta o de comida corrida,11 a 30 personas,AVENIDA,FRANCISCO I. MADERO,347,,ZONA CENTRO,20000,"AGUASCALIENTES, Aguascalientes, AGUASCALIENTES",,,,Fijo,-102.29080895,21.88245169,,,,Aguascalientes
01001722219010821000000000U7,23812,GORDITAS REBE,,Restaurantes con servicio de preparación de antojitos,0 a 5 personas,CALLE,JOSEFA ORTIZ DE DOMINGUEZ,448,,EL LLANITO,20240,"AGUASCALIENTES, Aguascalientes, AGUASCALIENTES",,,,Fijo,-102.28931337,21.87660721,,,,Aguascalientes
01001722516001211000000000U1,8540516,BURGUER ME RESTAURANT,,"Restaurantes con servicio de preparación de pizzas, hamburguesas, hot dogs y pollos rostizados para llevar",0 a 5 personas,AVENIDA,FRANCISCO I. MADERO,353,,ZONA CENTRO,20000,"AGUASCALIENTES, Aguascalientes, AGUASCALIENTES",,BURGER.ME.AGS@GMAIL.COM,,Fijo,-102.29065460,21.88249231,,,,Aguascalientes
01001722513018991000000000U6,6979762,GORDITAS ESTERCITA,,Restaurantes con servicio de preparación de antojitos,0 a 5 personas,CALLE,BERLIN,201,0,ZONA CENTRO,20000,"AGUASCALIENTES, Aguascalientes, AGUASCALIENTES",4492559002,,,Fijo,-102.28732851,21.88061769,,,,Aguascalientes
01001722511002272000000000S3,7702933,LA CREPERIA FD REV,,Restaurantes con servicio de preparación de alimentos a la carta o de comida corrida,6 a 10 personas,AVENIDA,FRANCISCO I. MADERO,326,,ZONA CENTRO,20000,"AGUASCALIENTES, Aguascalientes, AGUASCALIENTES",,MADERO@LACREPERIA.MX,WWW.LACREPERIA.MX,Fijo,-102.29167197,21.88237266,,,,Aguascalientes
01001722219012261000000000S4,23527,LECHON PASCUALITO,,Restaurantes con servicio de preparación de antojitos,0 a 5 personas,CALLE,DOCTOR JESUS DIAZ DE LEON,208,0,ZONA CENTRO,20000,"AGUASCALIENTES, Aguascalientes, AGUASCALIENTES",,,,Fijo,-102.29379406,21.87916331,,,,Aguascalientes
01001722219017611000000000U5,23708,LONCHERIA,,Restaurantes con servicio de preparación de tacos y tortas,0 a 5 personas,CALLE,DOCTOR JESUS DIAZ DE LEON,337,0,DEL ENCINO,20240,"AGUASCALIENTES, Aguascalientes, AGUASCALIENTES",,,,Fijo,-102.29338802,21.87770659,,,,Aguascalientes
01001722513001901000000000U4,37478,GORDITAS LOLITA,,Restaurantes con servicio de preparación de antojitos,0 a 5 personas,CALLE,DOCTOR JESUS DIAZ DE LEON,207,,ZONA CENTRO,20000,"AGUASCALIENTES, Aguascalientes, AGUASCALIENTES",4499158814,,,Fijo,-102.29393486,21.87926049,,,,Aguascalientes
01001722512001211000000000U0,6923885,EL ZAR DEL CAMARON,,Restaurantes con servicio de preparación de pescados y mariscos,0 a 5 personas,CALLE,GENERAL IGNACIO ZARAGOZA,204,,ZONA CENTRO,20000,"AGUASCALIENTES, Aguascalientes, AGUASCALIENTES",,PASTORXD345@GMAIL.COM,,Fijo,-102.29041147,21.88275896,,,,Aguascalientes
01001722514008161000000000U6,7703034,LONCHERIA LA BOLILLERIA,,Restaurantes con servicio de preparación de tacos y tortas,0 a 5 personas,AVENIDA,FRANCISCO I. MADERO,408,,ZONA CENTRO,20000,"AGUASCALIENTES, Aguascalientes, AGUASCALIENTES",,,,Fijo,-102.29014204,21.88275195,,,,Aguascalientes
01001722513018571000000000U6,6923887,GORDITAS MORELOS,,Restaurantes con servicio de preparación de antojitos,0 a 5 personas,AVENIDA,FRANCISCO I. MADERO,312,,ZONA CENTRO,20000,"AGUASCALIENTES, Aguascalientes, AGUASCALIENTES",4491811609,,,Fijo,-102.29249500,21.88215376,,,,Aguascalientes
01001722517004532000046546S5,8524916,BENEDETTIS PIZZA,PIZZAS INCREIBLES SA DE CV,Restaurantes de autoservicio,6 a 10 personas,AVENIDA,FRANCISCO I. MADERO,308,,ZONA CENTRO,20000,"AGUASCALIENTES, Aguascalientes, AGUASCALIENTES",,UB16MADERO@HOTMAIL.COM,WWW.BENEDETTIS.COM,Fijo,-102.29264041,21.88211508,,,,Aguascalientes
01001722110001103000000000U2,20840,LAS ANTORCHAS,,Restaurantes con servicio de preparación de alimentos a la carta o de comida corrida,11 a 30 personas,AVENIDA,FRANCISCO I. MADERO,240,0,ZONA CENTRO,20000,"AGUASCALIENTES, Aguascalientes, AGUASCALIENTES",,,,Fijo,-102.29297541,21.88202943,,,,Aguascalientes
01001722212006711010000000U1,20543,EL GRAN TAQUITO,,Restaurantes con servicio de preparación de tacos y tortas,0 a 5 personas,CALLE,JUAN DE MONTORO,471,0,ZONA CENTRO,20000,"AGUASCALIENTES, Aguascalientes, AGUASCALIENTES",4491833610,,,Fijo,-102.28792512,21.88210034,,,,Aguascalientes
01001722511000883001000000U9,24869,LA MADERO,,Restaurantes con servicio de preparación de alimentos a la carta o de comida corrida,6 a 10 personas,AVENIDA,FRANCISCO I. MADERO,237,,ZONA CENTRO,20000,"AGUASCALIENTES, Aguascalientes, AGUASCALIENTES",,,,Fijo,-102.29328999,21.88178764,,,,Aguascalientes
01001722513018721000000000U7,6924102,GORDITAS SIN NOMBRE,,Restaurantes con servicio de preparación de antojitos,0 a 5 personas,CALLE,SOLEDAD,210,,DEL LLANITO,20240,"AGUASCALIENTES, Aguascalientes, AGUASCALIENTES",,,,Fijo,-102.28747728,21.87713908,,,,Aguascalientes
01001722219019781000000000U4,23541,BIRRIERIA GONZALEZ,,Restaurantes con servicio de preparación de antojitos,0 a 5 personas,CALLE,DOCTOR JESUS DIAZ DE LEON,109,,ZONA CENTRO,20000,"AGUASCALIENTES, Aguascalientes, AGUASCALIENTES",,,,Fijo,-102.29422995,21.88007513,,,,Aguascalientes
01001722514004781001000000U5,37469,LECHON PASCUALITO,,Restaurantes con servicio de preparación de tacos y tortas,6 a 10 personas,CALLE,DOCTOR JESUS DIAZ DE LEON,101,,ZONA CENTRO,20000,"AGUASCALIENTES, Aguascalientes, AGUASCALIENTES",,GUERITO-36@HOTMAIL.COM,,Fijo,-102.29424218,21.88010987,,,,Aguascalientes
01001722518001871000000000U8,37391,COCINA ECONÓMICA,,Restaurantes que preparan otro tipo de alimentos para llevar,0 a 5 personas,CALLE,5 DE FEBRERO,512,,DEL LLANITO,20240,"AGUASCALIENTES, Aguascalientes, AGUASCALIENTES",,,,Fijo,-102.28720844,21.87739642,,,,Aguascalientes
01001722219023052001000000U4,20919,RESTAURANTE MITLA,RESTAURANTE MITLEQUITOS S DE RL DE CV,Restaurantes con servicio de preparación de alimentos a la carta o de comida corrida,6 a 10 personas,AVENIDA,FRANCISCO I. MADERO,222,0,ZONA CENTRO,20000,"AGUASCALIENTES, Aguascalientes, AGUASCALIENTES",4491452041,,,Fijo,-102.29339226,21.88192363,,,,Aguascalientes
01001722511002601000000000U3,6979598,CASA MONTORO,,Restaurantes con servicio de preparación de alimentos a la carta o de comida corrida,0 a 5 personas,CALLE,JUAN DE MONTORO,203,,ZONA CENTRO,20000,"AGUASCALIENTES, Aguascalientes, AGUASCALIENTES",,,,Fijo,-102.29410199,21.88089839,,,,Aguascalientes
01001722513017591000000000U5,7700865,HUARACHE VELOS ESTILO DF COCINA ECONOMICA,,Restaurantes con servicio de preparación de antojitos,0 a 5 personas,CALLE,FRANCISCO G. HORNEDO,219,,ZONA CENTRO,20000,"AGUASCALIENTES, Aguascalientes, AGUASCALIENTES",4494051004,,,Fijo,-102.29453719,21.87925465,,,,Aguascalientes
01001722518003291000000000U7,6923113,COCINA ECONOMICA @.COM.ER,,Restaurantes que preparan otro tipo de alimentos para llevar,0 a 5 personas,CALLE,GONZALEZ SARACHO,102,,ZONA CENTRO,20000,"AGUASCALIENTES, Aguascalientes, AGUASCALIENTES",,,,Fijo,-102.29276217,21.88267625,,,,Aguascalientes
01001722511002981000000000U9,8525079,RESTAURANTE LOS ALAMBRES,,Restaurantes con servicio de preparación de alimentos a la carta o de comida corrida,0 a 5 personas,AVENIDA,FRANCISCO I. MADERO,448,,ZONA CENTRO,20000,"AGUASCALIENTES, Aguascalientes, AGUASCALIENTES",,,,Fijo,-102.28887068,21.88312071,,,,Aguascalientes
01001722514008411000000000U5,6923114,TAQUERIA EL RINCON DE LA BARBACOA,,Restaurantes con servicio de preparación de tacos y tortas,0 a 5 personas,CALLE,GENERAL IGNACIO ZARAGOZA,221,,ZONA CENTRO,20000,"AGUASCALIENTES, Aguascalientes, AGUASCALIENTES",,,,Fijo,-102.29060647,21.88343457,,,,Aguascalientes
01001722219019421000000000U7,20657,LONCHERIA EL MONO,,Restaurantes con servicio de preparación de tacos y tortas,0 a 5 personas,AVENIDA,LICENCIADO ADOLFO LOPEZ MATEOS PONIENTE,616,0,CENTRO,20000,"AGUASCALIENTES, Aguascalientes, AGUASCALIENTES",,,,Fijo,-102.28605873,21.87920046,,,,Aguascalientes
01001722517002792000000000U7,36254,IL RE ITALIANO,,"Restaurantes con servicio de preparación de pizzas, hamburguesas, hot dogs y pollos rostizados para llevar",6 a 10 personas,CALLE,GENERAL IGNACIO ZARAGOZA,232,0,ZONA CENTRO,20000,"AGUASCALIENTES, Aguascalientes, AGUASCALIENTES",,,,Fijo,-102.29078755,21.88355840,,,,Aguascalientes
01001722511002971000000000U0,8525045,LONCHERIA SIN NOMBRE,,Restaurantes con servicio de preparación de alimentos a la carta o de comida corrida,0 a 5 personas,CALLE,COSIO SUR,312,,EL LLANITO,20240,"AGUASCALIENTES, Aguascalientes, AGUASCALIENTES",,,,Fijo,-102.28609864,21.87854105,,,,Aguascalientes
01001722517001791000000000U0,37402,ROSTICERÍA MR POLLO,,"Restaurantes con servicio de preparación de pizzas, hamburguesas, hot dogs y pollos rostizados para llevar",0 a 5 personas,CALLE,SOLEDAD,229,,EL LLANITO,20240,"AGUASCALIENTES, Aguascalientes, AGUASCALIENTES",4499188381,,,Fijo,-102.28700653,21.87681883,,,,Aguascalientes
01001722514004391000000000U3,37376,TACOS LUIS,,Restaurantes con servicio de preparación de tacos y tortas,0 a 5 personas,CALLE,COSIO SUR,302,,DEL LLANITO,20240,"AGUASCALIENTES, Aguascalientes, AGUASCALIENTES",4491284342,,,Fijo,-102.28597121,21.87898099,,,,Aguascalientes
01001722513018611000000000U0,6923936,LONCHERIA LA MORDIDA,,Restaurantes con servicio de preparación de antojitos,0 a 5 personas,CALLE,GONZALEZ SARACHO,126,,ZONA CENTRO,20000,"AGUASCALIENTES, Aguascalientes, AGUASCALIENTES",4492206363,,,Fijo,-102.29087161,21.88363506,,,,Aguascalientes
01001722514009481000000000U7,8525048,LONCHERIA LA IDEAL,,Restaurantes con servicio de preparación de tacos y tortas,0 a 5 personas,AVENIDA,LICENCIADO ADOLFO LOPEZ MATEOS PONIENTE,701,,EL LLANITO,20240,"AGUASCALIENTES, Aguascalientes, AGUASCALIENTES",,,,Fijo,-102.28593118,21.87899709,,,,Aguascalientes
01001722514008951000000000U0,6979772,LONCHERIA SIN NOMBRE,,Restaurantes con servicio de preparación de tacos y tortas,0 a 5 personas,CALLE,COSIO SUR,204,,LA PURISIMA,20259,"AGUASCALIENTES, Aguascalientes, AGUASCALIENTES",4492442044,,,Fijo,-102.28645840,21.88153824,,,,Aguascalientes
01001722511002291000000000U3,7703051,RINCON COLOMBIANO,,Restaurantes con servicio de preparación de alimentos a la carta o de comida corrida,0 a 5 personas,CALLE,CRISTOBAL COLON,306,0,DEL ENCINO,20240,"AGUASCALIENTES, Aguascalientes, AGUASCALIENTES",,,,Fijo,-102.29485183,21.87844021,,,,Aguascalientes
01001722518003561000000000U3,8196094,TORTAS LA CHINITA,,Restaurantes con servicio de preparación de tacos y tortas,0 a 5 personas,CALLE,MAESTRO MIGUEL MENESES,102,,LA PURISIMA,20259,"AGUASCALIENTES, Aguascalientes, AGUASCALIENTES",,,,Fijo,-102.28582998,21.87966387,,,,Aguascalientes
01001722511002641000000000U9,6979771,HOLYVEGAN,,Restaurantes con servicio de preparación de alimentos a la carta o de comida corrida,0 a 5 personas,CALLE,FRANCISCO G. HORNEDO,602,,LA PURISIMA,20259,"AGUASCALIENTES, Aguascalientes, AGUASCALIENTES",4499089754,HOLYVEGAN602@GMAIL.COM,,Fijo,-102.28647292,21.88168470,,,,Aguascalientes
01001722219009931000000000U7,23545,LONCHERIA EL MONO,,Restaurantes con servicio de preparación de tacos y tortas,0 a 5 personas,CALLE,FRANCISCO G. HORNEDO,202,,ZONA CENTRO,20000,"AGUASCALIENTES, Aguascalientes, AGUASCALIENTES",,,,Fijo,-102.29501093,21.87915846,,,,Aguascalientes
01001722517003951000000000U8,8094229,GUITARS BURGER,,"Restaurantes con servicio de preparación de pizzas, hamburguesas, hot dogs y pollos rostizados para llevar",0 a 5 personas,AVENIDA,FRANCISCO I. MADERO,475,,ZONA CENTRO,20000,"AGUASCALIENTES, Aguascalientes, AGUASCALIENTES",4492592517,GUITAR.S_BURGER@HOTMAIL.COM,,Fijo,-102.28812344,21.88319575,,,,Aguascalientes
01001722517004551000000000U5,8525044,PIZZA BELLA,,"Restaurantes con servicio de preparación de pizzas, hamburguesas, hot dogs y pollos rostizados para llevar",0 a 5 personas,AVENIDA,LICENCIADO ADOLFO LOPEZ MATEOS PONIENTE,,,EL LLANITO,20240,"AGUASCALIENTES, Aguascalientes, AGUASCALIENTES",,,,Fijo,-102.28580328,21.87898354,,,,Aguascalientes
01001722513018771000000000U2,6924154,VENTA DE JUGOS Y CENADURIA,,Restaurantes con servicio de preparación de antojitos,0 a 5 personas,CALLE,5 DE FEBRERO,528,,DEL LLANITO,20240,"AGUASCALIENTES, Aguascalientes, AGUASCALIENTES",,,,Fijo,-102.28645512,21.87717252,,,,Aguascalientes
01001722514007271000000000U4,8094230,TAQUEANDO,,Restaurantes con servicio de preparación de tacos y tortas,0 a 5 personas,AVENIDA,FRANCISCO I. MADERO,479,,ZONA CENTRO,20000,"AGUASCALIENTES, Aguascalientes, AGUASCALIENTES",4491112485,TAQUEANDOAGS@GMAIL.COM,,Fijo,-102.28805735,21.88321445,,,,Aguascalientes
01001722511003033000000000U8,8540417,MERCADITO GASTRONOMICO COLON,,Restaurantes con servicio de preparación de alimentos a la carta o de comida corrida,11 a 30 personas,CALLE,CRISTOBAL COLON,132,,ZONA CENTRO,20000,"AGUASCALIENTES, Aguascalientes, AGUASCALIENTES",,SINTANTITAPENA@LIVE.COM.MX,,Fijo,-102.29507934,21.87920482,,,,Aguascalientes
01001722219024142000000000U2,20530,EL SOPECITO,,Restaurantes con servicio de preparación de antojitos,6 a 10 personas,CALLE,COSIO SUR,105,0,ZONA CENTRO,20000,"AGUASCALIENTES, Aguascalientes, AGUASCALIENTES",4493529801,,,Fijo,-102.28680187,21.88225612,,,,Aguascalientes
01001722518003191000000000S9,7700860,LA FONDITA,,Restaurantes que preparan otro tipo de alimentos para llevar,0 a 5 personas,CALLE,CRISTOBAL COLON,203,0,ZONA CENTRO,20000,"AGUASCALIENTES, Aguascalientes, AGUASCALIENTES",4494972082,,,Fijo,-102.29508042,21.87894468,,,,Aguascalientes
01001722514009171000000000U4,8195948,QUE HAY CARNAL TAQUERIA,,Restaurantes con servicio de preparación de tacos y tortas,0 a 5 personas,CALLE,CRISTOBAL COLON,115,,ZONA CENTRO,20000,"AGUASCALIENTES, Aguascalientes, AGUASCALIENTES",4499509933,,,Fijo,-102.29512625,21.87912551,,,,Aguascalientes
01001722212000331001000000U4,23619,CARNITAS CHANOY,,Restaurantes con servicio de preparación de tacos y tortas,6 a 10 personas,CALLE,JUAN DE MONTORO,109,,ZONA CENTRO,20000,"AGUASCALIENTES, Aguascalientes, AGUASCALIENTES",,,,Fijo,-102.29503285,21.88053735,,,,Aguascalientes
01001722513018921000000000U3,6924411,ANTOJITOS COLON,,Restaurantes con servicio de preparación de antojitos,0 a 5 personas,CALLE,CRISTOBAL COLON,113,,ZONA CENTRO,20000,"AGUASCALIENTES, Aguascalientes, AGUASCALIENTES",4495497443,,,Fijo,-102.29517023,21.87925439,,,,Aguascalientes
01001722513018901000000000U5,6924374,ANTOJOS LOS TRES LUCEROS,,Restaurantes con servicio de preparación de antojitos,0 a 5 personas,CALLE,16 DE SEPTIEMBRE,522,,EL ENCINO,20240,"AGUASCALIENTES, Aguascalientes, AGUASCALIENTES",,,,Fijo,-102.29098460,21.87504041,,,,Aguascalientes
01001722513006071000000000U1,37443,POZOLE TOÑITA,,Restaurantes con servicio de preparación de antojitos,0 a 5 personas,CALLE,5 DE FEBRERO,547,,DEL LLANITO,20240,"AGUASCALIENTES, Aguascalientes, AGUASCALIENTES",4492098073,,,Fijo,-102.28637656,21.87708154,,,,Aguascalientes
01001722513000981000000000U7,24331,GORDITAS SIN NOMBRE,,Restaurantes con servicio de preparación de antojitos,0 a 5 personas,CALLE,COSIO SUR,606,,DEL LLANITO,20240,"AGUASCALIENTES, Aguascalientes, AGUASCALIENTES",4491066935,NATY_SWET@YAHOO.COM.MX,,Fijo,-102.28659648,21.87678242,,,,Aguascalientes
01001722517005171000000000U1,9159739,HAMBURQUESERIA NOMADAS,,"Restaurantes con servicio de preparación de pizzas, hamburguesas, hot dogs y pollos rostizados para llevar",0 a 5 personas,CALLE,COSIO SUR,100,,ZONA CENTRO,20000,"AGUASCALIENTES, Aguascalientes, AGUASCALIENTES",4492650587,,,Fijo,-102.28692382,21.88252912,,,,Aguascalientes
01001722219022092000000000U1,23802,LA PLAZUELA ANTOJITOS MEXICANOS,,Restaurantes con servicio de preparación de antojitos,6 a 10 personas,CALLE,DOCTOR JESUS DIAZ DE LEON,460,,DEL ENCINO,20240,"AGUASCALIENTES, Aguascalientes, AGUASCALIENTES",,AMELIA009@HOTMAIL.COM,,Fijo,-102.29260031,21.87546528,,,,Aguascalientes
01001722513017931000000000U3,8434455,GORDITAS MARAVILLAS,,Restaurantes con servicio de preparación de antojitos,0 a 5 personas,CALLE,CRISTOBAL COLON,122,,ZONA CENTRO,20000,"AGUASCALIENTES, Aguascalientes, AGUASCALIENTES",,,,Fijo,-102.29523697,21.87975419,,,,Aguascalientes
01001722511002531000000000U2,6923970,REMOLACHA SALASDS & MORE,,Restaurantes con servicio de preparación de alimentos a la carta o de comida corrida,0 a 5 personas,CALLE,JUAN DE MONTORO,114,0,ZONA CENTRO,20000,"AGUASCALIENTES, Aguascalientes, AGUASCALIENTES",4493443053,,WWW.REMOLACHASALDSMORE,Fijo,-102.29508195,21.88063075,EDIFICIO CASTILLA,EDIFICIO COMERCIAL Y DE SERVICIOS,114,Aguascalientes
02002722219009622001000000U9,57758,TORTAS EL CHAVO,,Restaurantes con servicio de preparación de tacos y tortas,6 a 10 personas,AVENIDA,AVENIDA DE LA REFORMA,414,0,PRIMERA SECCION,21100,"MEXICALI, Mexicali, BAJA CALIFORNIA",,,,Fijo,-115.49059528,32.66275018,,,,Baja California
02002722110001093000000000U2,57827,CAFÉ AZTECA,,Restaurantes con servicio de preparación de alimentos a la carta o de comida corrida,6 a 10 personas,AVENIDA,AVENIDA DE LA REFORMA,497,0,PRIMERA SECCION,21100,"MEXICALI, Mexicali, BAJA CALIFORNIA",6865526793,,,Fijo,-115.48966474,32.66293652,,,,Baja California
02002722511002611000000000U9,6930702,RESTAURANT BON GOUT,,Restaurantes con servicio de preparación de alimentos a la carta o de comida corrida,0 a 5 personas,BOULEVARD,ADOLFO LOPEZ MATEOS,499,,PRIMERA SECCION,21100,"MEXICALI, Mexicali, BAJA CALIFORNIA",6861808860,,,Fijo,-115.49025843,32.66247690,,,,Baja California
02002722219008531000000000U3,57836,TACOS DE GUISADO DEL PATRON,,Restaurantes con servicio de preparación de tacos y tortas,0 a 5 personas,CALLE,IGNACIO MANUEL ALTAMIRANO,113,0,PRIMERA SECCION,21100,"MEXICALI, Mexicali, BAJA CALIFORNIA",,,,Fijo,-115.49116436,32.66360924,,,,Baja California
02002722219010202001000000U7,57761,RESTAURANTE JADE,,Restaurantes con servicio de preparación de alimentos a la carta o de comida corrida,6 a 10 personas,AVENIDA,AVENIDA DE LA REFORMA,470,0,PRIMERA SECCION,21100,"MEXICALI, Mexicali, BAJA CALIFORNIA",6865525758,,,Fijo,-115.48953467,32.66276004,,,,Baja California
02002722219006941000000000U6,57739,PETUNIA 2,,Restaurantes con servicio de preparación de antojitos,0 a 5 personas,AVENIDA,FRANCISCO I. MADERO,436,0,PRIMERA SECCION,21100,"MEXICALI, Mexicali, BAJA CALIFORNIA",6865526951,,,Fijo,-115.49074179,32.66447574,,,,Baja California
02002722219010062010000000U5,57834,RESTAURANTE CANTON,,Restaurantes con servicio de preparación de alimentos a la carta o de comida corrida,0 a 5 personas,CALLE,IGNACIO MANUEL ALTAMIRANO,,,FRACC RIO NUEVO,21100,"MEXICALI, Mexicali, BAJA CALIFORNIA",,,,Fijo,-115.49135135,32.66209761,,,,Baja California
02002722219004681000000000U0,86527,RESTAURANTE BUN DIA,,Restaurantes con servicio de preparación de alimentos a la carta o de comida corrida,0 a 5 personas,CALLE,IGNACIO MANUEL ALTAMIRANO,263,,FRACC RIO NUEVO,21100,"MEXICALI, Mexicali, BAJA CALIFORNIA",,,,Fijo,-115.49121555,32.66198596,,,,Baja California
02002722513002391000000000U4,57671,CARNITAS LOS REYES,,Restaurantes con servicio de preparación de antojitos,0 a 5 personas,BOULEVARD,ADOLFO LOPEZ MATEOS,343,7,FRACC RIO NUEVO,21100,"MEXICALI, Mexicali, BAJA CALIFORNIA",,,,Fijo,-115.49200658,32.66286951,,,,Baja California
02002722514002161000000000U9,57666,TACOS DE BORREGO LOS REYES,,Restaurantes con servicio de preparación de tacos y tortas,0 a 5 personas,BOULEVARD,ADOLFO LOPEZ MATEOS,343,3,FRACC RIO NUEVO,21100,"MEXICALI, Mexicali, BAJA CALIFORNIA",6861813926,,,Fijo,-115.49200658,32.66286951,,,,Baja California
02002722514000261000000000U9,86326,VENTA DE TORTAS,,Restaurantes con servicio de preparación de tacos y tortas,0 a 5 personas,BOULEVARD,ADOLFO LOPEZ MATEOS,343,9,FRACC RIO NUEVO,21100,"MEXICALI, Mexicali, BAJA CALIFORNIA",,,,Fijo,-115.49200658,32.66286951,,,,Baja California
02002722511001532001000000U8,86459,RESTAURANT FORUM,,Restaurantes con servicio de preparación de alimentos a la carta o de comida corrida,0 a 5 personas,CALLE,JOSE MARIA MORELOS Y PAVON,,,PRIMERA SECCION,21100,"MEXICALI, Mexicali, BAJA CALIFORNIA",6865522809,,,Fijo,-115.48892317,32.66249169,,,,Baja California
02002722219006221001000000U3,57713,TORTAS Y FLAUTAS EXPRESS,,Restaurantes con servicio de preparación de tacos y tortas,6 a 10 personas,AVENIDA,BENITO JUAREZ,125,,FRACC RIO NUEVO,21100,"MEXICALI, Mexicali, BAJA CALIFORNIA",6865522175,,,Fijo,-115.49050475,32.66173084,,,,Baja California
02002722219011182000000000U0,57715,RESTAURANTE DRAGON ORO,,Restaurantes con servicio de preparación de alimentos a la carta o de comida corrida,6 a 10 personas,AVENIDA,BENITO JUAREZ,121,,FRACC RIO NUEVO,21100,"MEXICALI, Mexicali, BAJA CALIFORNIA",6865539042,,,Fijo,-115.49058543,32.66173036,,,,Baja California
02002722219009982000000000U7,57712,LAS TRADICIONALES FLAUTAS,,Restaurantes con servicio de preparación de antojitos,11 a 30 personas,AVENIDA,BENITO JUAREZ,131,,FRACC RIO NUEVO,21100,"MEXICALI, Mexicali, BAJA CALIFORNIA",6861199957,,,Fijo,-115.49003859,32.66173082,,,,Baja California
02002722212005301000000000U9,57711,TORTAS EL CHAPULIN,,Restaurantes con servicio de preparación de tacos y tortas,0 a 5 personas,AVENIDA,FRANCISCO I. MADERO,401,0,PRIMERA SECCION,21100,"MEXICALI, Mexicali, BAJA CALIFORNIA",6865519907,,,Fijo,-115.49109199,32.66464859,,,,Baja California
02002722219006951000000000U5,57718,RESTAURANTE CARMELITAS,,Restaurantes con servicio de preparación de alimentos a la carta o de comida corrida,0 a 5 personas,AVENIDA,BENITO JUAREZ,113,,FRACC RIO NUEVO,21100,"MEXICALI, Mexicali, BAJA CALIFORNIA",,,,Fijo,-115.49093001,32.66172831,,,,Baja California
02002722110000713000000000U6,57933,BLANCA NIEVES,ALIMENTOS PREPARADOS DE MEXICALI SC,Restaurantes con servicio de preparación de alimentos a la carta o de comida corrida,11 a 30 personas,AVENIDA,REFORMA,515,0,PRIMERA SECCION,21100,"MEXICALI, Mexicali, BAJA CALIFORNIA",6865529485,BLANCANIEVE@PRODIGY.NET.MX,,Fijo,-115.48852319,32.66345055,,,,Baja California
02002722511002562000000000U4,6930410,LA FONDITA SIN NOMBRE,,Restaurantes con servicio de preparación de alimentos a la carta o de comida corrida,6 a 10 personas,AVENIDA,BENITO JUAREZ,111,,FRACC RIO NUEVO,21100,"MEXICALI, Mexicali, BAJA CALIFORNIA",6862347687,,,Fijo,-115.49103667,32.66172768,,,,Baja California
02002722219007991000000000M0,86365,TORTAS ESTILO YUCATÁN,,Restaurantes con servicio de preparación de tacos y tortas,6 a 10 personas,AVENIDA,FRANCISCO I. MADERO,476,0,PRIMERA SECCION,21100,"MEXICALI, Mexicali, BAJA CALIFORNIA",6865523152,,,Fijo,-115.48922274,32.66458430,,,,Baja California
02002722219010662001000000U2,57229,RESTAURANTE 8,,Restaurantes con servicio de preparación de alimentos a la carta o de comida corrida,6 a 10 personas,AVENIDA,BENITO JUAREZ,150,0,FRACC RIO NUEVO,21100,"MEXICALI, Mexicali, BAJA CALIFORNIA",,REST.8.ENCI@GMAIL.COM,,Fijo,-115.48981342,32.66155770,,,,Baja California
02002722219006571000000000U1,57841,MARISCOS EL GUERO,,Restaurantes con servicio de preparación de pescados y mariscos,0 a 5 personas,CALLE,JOSE MARIA MORELOS Y PAVON,505,,PRIMERA SECCION,21100,"MEXICALI, Mexicali, BAJA CALIFORNIA",6862324021,,,Fijo,-115.48860973,32.66228841,,,,Baja California
02002722511004101000000000U9,8370308,RESTAURANTE CHINA LAND,,Restaurantes con servicio de preparación de alimentos a la carta o de comida corrida,0 a 5 personas,BOULEVARD,ADOLFO LOPEZ MATEOS,333,,FRACC RIO NUEVO,21100,"MEXICALI, Mexicali, BAJA CALIFORNIA",,,,Fijo,-115.49270186,32.66317627,,,,Baja California
02002722514005101000000000U2,6930477,BURROS Y TACOS ANGEL,,Restaurantes con servicio de preparación de tacos y tortas,0 a 5 personas,AVENIDA,REFORMA,325,,FRACC RIO NUEVO,21100,"MEXICALI, Mexicali, BAJA CALIFORNIA",6861859329,,,Fijo,-115.49273266,32.66288992,,,,Baja California
02002722219000341000000000U5,57317,RESTAURANTE LUNG KONG,,Restaurantes con servicio de preparación de alimentos a la carta o de comida corrida,0 a 5 personas,CALLE,IGNACIO MANUEL ALTAMIRANO,336,,FRACC RIO NUEVO,21100,"MEXICALI, Mexicali, BAJA CALIFORNIA",,,,Fijo,-115.49136812,32.66132532,,,,Baja California
02002722110000763000000000U1,57315,RESTAURANTE VICTORIA,,Restaurantes con servicio de preparación de alimentos a la carta o de comida corrida,11 a 30 personas,AVENIDA,BENITO JUAREZ,90,,FRACC RIO NUEVO,21100,"MEXICALI, Mexicali, BAJA CALIFORNIA",6865522151,,,Fijo,-115.49196712,32.66156634,,,,Baja California
02002722514000821001000000U0,86535,TAQUERIA SAMY,,Restaurantes con servicio de preparación de tacos y tortas,6 a 10 personas,CALLE,JOSE MARIA MORELOS Y PAVON,332,0,FRACC RIO NUEVO,21100,"MEXICALI, Mexicali, BAJA CALIFORNIA",,,,Fijo,-115.48914751,32.66134439,,,,Baja California
02002722219005391000000000U5,57675,LA CASITA DEL BURRO,,Restaurantes con servicio de preparación de tacos y tortas,0 a 5 personas,AVENIDA,REFORMA,310,,FRACC RIO NUEVO,21100,"MEXICALI, Mexicali, BAJA CALIFORNIA",,,,Fijo,-115.49296670,32.66278872,,,,Baja California
02002722219010722001000000U4,57407,EL TAQUITO DE ORO,,Restaurantes con servicio de preparación de tacos y tortas,11 a 30 personas,CALLE,JOSE MARIA MORELOS Y PAVON,334,0,FRACC RIO NUEVO,21100,"MEXICALI, Mexicali, BAJA CALIFORNIA",6865433779,CESESARVM_734@HOTMAIL.COM,,Fijo,-115.48914429,32.66111877,,,,Baja California
02002722219009762000000000U3,57908,EL GRAN TAQUITO,,Restaurantes con servicio de preparación de tacos y tortas,0 a 5 personas,CALLE,JOSE MARIA MORELOS Y PAVON,321,,FRACC RIO NUEVO,21100,"MEXICALI, Mexicali, BAJA CALIFORNIA",6865524684,,,Fijo,-115.48891111,32.66105147,,,,Baja California
02002722511002591000000000U3,6930589,LA ROSA DE MEXICALI,,Restaurantes con servicio de preparación de alimentos a la carta o de comida corrida,0 a 5 personas,AVENIDA,REFORMA,208,0,PRIMERA SECCION,21100,"MEXICALI, Mexicali, BAJA CALIFORNIA",,,,Fijo,-115.48730047,32.66340237,,,,Baja California
02002722513003152000000000U9,6930469,TAQUERÍA JUAREZ,,Restaurantes con servicio de preparación de tacos y tortas,6 a 10 personas,AVENIDA,BENITO JUAREZ,27,,FRACC RIO NUEVO,21100,"MEXICALI, Mexicali, BAJA CALIFORNIA",,,,Fijo,-115.49300184,32.66172504,,,,Baja California
02002722511002551000000000U7,6930349,CHILES,,Restaurantes con servicio de preparación de alimentos a la carta o de comida corrida,0 a 5 personas,CALLE,JOSE MARIA MORELOS Y PAVON,396,0,FRACC RIO NUEVO,21100,"MEXICALI, Mexicali, BAJA CALIFORNIA",6863494772,,,Fijo,-115.48913722,32.66062243,,,,Baja California
02002722212006151000000000U7,57233,TAQUERIA AQUI CON CHON,,Restaurantes con servicio de preparación de tacos y tortas,0 a 5 personas,AVENIDA,SEBASTIAN LERDO DE TEJADA,481,0,FRACC RIO NUEVO,21100,"MEXICALI, Mexicali, BAJA CALIFORNIA",,,,Fijo,-115.49043376,32.66032922,,,,Baja California
02002722518001632000000000U1,9153007,LA FONDA DE MAMA,ASOCIACION CIVIL COBINA AC,Restaurantes que preparan otro tipo de alimentos para llevar,6 a 10 personas,AVENIDA,SEBASTIAN LERDO DE TEJADA,461,0,FRACC RIO NUEVO,21100,"MEXICALI, Mexicali, BAJA CALIFORNIA",,,,Fijo,-115.49057765,32.66032673,,,,Baja California
02002722212003311010000000U0,57279,LONCHERIA NAYELI,,Restaurantes con servicio de preparación de antojitos,0 a 5 personas,AVENIDA,SEBASTIAN LERDO DE TEJADA,472,0,FRACC RIO NUEVO,21100,"MEXICALI, Mexicali, BAJA CALIFORNIA",,,,Fijo,-115.48995320,32.66020616,,,,Baja California
02002722513003071000000000U1,6930231,LONCHERIA CHELO,,Restaurantes con servicio de preparación de antojitos,0 a 5 personas,AVENIDA,SEBASTIAN LERDO DE TEJADA,472,0,FRACC RIO NUEVO,21100,"MEXICALI, Mexicali, BAJA CALIFORNIA",,,,Fijo,-115.48995320,32.66020616,,,,Baja California
02002722219011002000000000U0,57230,RESTAURANTE MAGDAS,,Restaurantes con servicio de preparación de antojitos,0 a 5 personas,AVENIDA,SEBASTIAN LERDO DE TEJADA,489,0,FRACC RIO NUEVO,21100,"MEXICALI, Mexicali, BAJA CALIFORNIA",,,,Fijo,-115.48916824,32.66035372,,,,Baja California
02002722511003681000000000U1,8728538,LA CAFETERIA SABOR A MEXICO,,Restaurantes con servicio de preparación de alimentos a la carta o de comida corrida,0 a 5 personas,CALLE,MEXICO,151,,PRIMERA SECCION,21100,"MEXICALI, Mexicali, BAJA CALIFORNIA",,,,Fijo,-115.48688657,32.66404992,,,,Baja California
02002722110001514000000000U7,58008,GOLDEN CHINA RESTAURANTE,,Restaurantes con servicio de preparación de alimentos a la carta o de comida corrida,11 a 30 personas,AVENIDA,FRANCISCO I. MADERO,577,,PRIMERA SECCION,21100,"MEXICALI, Mexicali, BAJA CALIFORNIA",6865820091,,,Fijo,-115.48735089,32.66491703,,,,Baja California
02002722518000711000000000U4,86507,LA CASA DE ROSA ELENA,,Restaurantes con servicio de preparación de alimentos a la carta o de comida corrida,0 a 5 personas,CALLEJON,REFORMA,249,,PRIMERA SECCION,21100,"MEXICALI, Mexicali, BAJA CALIFORNIA",,,,Fijo,-115.48672331,32.66280698,,,,Baja California
02002722513003871000000000U4,8728442,LONCHERIA LA COCINA DE MAM,,Restaurantes con servicio de preparación de antojitos,0 a 5 personas,AVENIDA,REFORMA,272,,FRACC RIO NUEVO,21100,"MEXICALI, Mexicali, BAJA CALIFORNIA",,,,Fijo,-115.49417505,32.66279670,,,,Baja California
02002722219004911000000000U1,57638,LA CASA DE LAS SOPAS,,Restaurantes con servicio de preparación de antojitos,0 a 5 personas,AVENIDA,REFORMA,263,,FRACC RIO NUEVO,21100,"MEXICALI, Mexicali, BAJA CALIFORNIA",,,,Fijo,-115.49424277,32.66296407,,,,Baja California
02002722514006991000000000S5,8346378,RESTAURANTE CON SERVICIO DE PREPARACION DE TACOS Y TORTAS SIN NOMBRE,,Restaurantes con servicio de preparación de tacos y tortas,0 a 5 personas,CALLE,JOSE MARIA MORELOS Y PAVON,402,,FRACC RIO NUEVO,21100,"MEXICALI, Mexicali, BAJA CALIFORNIA",,,,Fijo,-115.48913381,32.66009629,,,,Baja California
02002722514003451000000000U3,86554,TACOS JONY,,Restaurantes con servicio de preparación de tacos y tortas,0 a 5 personas,CALLE,JOSE MARIA MORELOS Y PAVON,402,0,FRACC RIO NUEVO,21100,"MEXICALI, Mexicali, BAJA CALIFORNIA",,,,Fijo,-115.48913381,32.66009629,,,,Baja California
02002722514000891000000000U3,86319,TAQUERÍA GUANAJUATO,,Restaurantes con servicio de preparación de tacos y tortas,0 a 5 personas,AVENIDA,REFORMA,282,,FRACC RIO NUEVO,21100,"MEXICALI, Mexicali, BAJA CALIFORNIA",,,,Fijo,-115.49424689,32.66279771,,,,Baja California
02002722514005091000000000U5,6930471,TAQUERIA JIMMYS,,Restaurantes con servicio de preparación de tacos y tortas,0 a 5 personas,AVENIDA,REFORMA,282,3,FRACC RIO NUEVO,21100,"MEXICALI, Mexicali, BAJA CALIFORNIA",,,,Fijo,-115.49424689,32.66279771,,,,Baja California
02002722512000451000000000U0,86293,MARISCOS EL TOÑO,,Restaurantes con servicio de preparación de pescados y mariscos,0 a 5 personas,AVENIDA,REFORMA,262,263,FRACC RIO NUEVO,21100,"MEXICALI, Mexicali, BAJA CALIFORNIA",6861454036,,,Fijo,-115.49426884,32.66296397,,,,Baja California
02002722513004221000000000U1,8370310,FLAUTAS MI NUEVO RANCHITO,,Restaurantes con servicio de preparación de antojitos,0 a 5 personas,AVENIDA,REFORMA,203,,FRACC RIO NUEVO,21100,"MEXICALI, Mexicali, BAJA CALIFORNIA",,,,Fijo,-115.49447296,32.66296324,,,,Baja California
02002722110000783000000000U9,57884,RESTAURANTE NUEVO MANDARIN,NUEVO MANDARIN S DE RL DE CV,Restaurantes con servicio de preparación de alimentos a la carta o de comida corrida,11 a 30 personas,AVENIDA,REFORMA,628,,PRIMERA SECCION,21100,"MEXICALI, Mexicali, BAJA CALIFORNIA",6865540388,,,Fijo,-115.48622592,32.66346809,,,,Baja California
02002722219004411000000000U4,57830,RESTAURANT SHANGHAI,,Restaurantes con servicio de preparación de alimentos a la carta o de comida corrida,0 a 5 personas,AVENIDA,FRANCISCO I. MADERO,235,0,ZONA CENTRO,21100,"MEXICALI, Mexicali, BAJA CALIFORNIA",,,,Fijo,-115.49435648,32.66441109,,,,Baja California
02002722110000291000000000U3,57405,RESTAURANTE EL MANDILON,,Restaurantes con servicio de preparación de alimentos a la carta o de comida corrida,0 a 5 personas,CALLE,JOSE MARIA MORELOS Y PAVON,403,,FRACC RIO NUEVO,21100,"MEXICALI, Mexicali, BAJA CALIFORNIA",,,,Fijo,-115.48890312,32.65982645,,,,Baja California
02002722514006831000000000U3,8796586,LAS TRES TORTAS,,Restaurantes con servicio de preparación de tacos y tortas,0 a 5 personas,AVENIDA,SEBASTIAN LERDO DE TEJADA,542,,FRACC RIO NUEVO,21100,"MEXICALI, Mexicali, BAJA CALIFORNIA",,,,Fijo,-115.48780902,32.66028153,,,,Baja California
02002722219001341000000000U4,86337,ANTOJITOS YORLEIN,,Restaurantes con servicio de preparación de antojitos,0 a 5 personas,AVENIDA,REFORMA,250,1,FRACC RIO NUEVO,21100,"MEXICALI, Mexicali, BAJA CALIFORNIA",,,,Fijo,-115.49468580,32.66280389,,,,Baja California
02002722511004111000000000U8,8370367,LONCHERIA EL POLLO,,Restaurantes con servicio de preparación de alimentos a la carta o de comida corrida,0 a 5 personas,AVENIDA,GENERAL ALVARO OBREGON,608,,PRIMERA SECCION,21100,"MEXICALI, Mexicali, BAJA CALIFORNIA",,,,Fijo,-115.48620497,32.66210694,,,,Baja California
02002722512000891000000000U7,86287,MARISCOS EL PANCHO,,Restaurantes con servicio de preparación de pescados y mariscos,0 a 5 personas,CALLE,AGUSTIN MELGAR,143,,FRACC RIO NUEVO,21100,"MEXICALI, Mexicali, BAJA CALIFORNIA",,,,Fijo,-115.49478442,32.66320846,,,,Baja California
02002722511000371000000000U2,86289,LONCHERIA LA JOYA,,Restaurantes con servicio de preparación de alimentos a la carta o de comida corrida,0 a 5 personas,AVENIDA,REFORMA,201,,FRACC RIO NUEVO,21100,"MEXICALI, Mexicali, BAJA CALIFORNIA",,,,Fijo,-115.49478021,32.66296214,,,,Baja California
02002722511001351000000000U3,86318,RESTAURANT LUPITA,,Restaurantes con servicio de preparación de alimentos a la carta o de comida corrida,0 a 5 personas,AVENIDA,REFORMA,244,,FRACC RIO NUEVO,21100,"MEXICALI, Mexicali, BAJA CALIFORNIA",,,,Fijo,-115.49476553,32.66280502,,,,Baja California
02002722518001101000000000U7,6930647,LA COCINA DE LULYS,,Restaurantes que preparan otro tipo de alimentos para llevar,0 a 5 personas,AVENIDA,REFORMA,625,,PRIMERA SECCION,21100,"MEXICALI, Mexicali, BAJA CALIFORNIA",,,,Fijo,-115.48595518,32.66365175,,,,Baja California
02002722219002161000000000U5,57692,RESTAURANTE MEXICALI ROSE,,Restaurantes con servicio de preparación de alimentos a la carta o de comida corrida,0 a 5 personas,CALLE,AGUSTIN MELGAR,130,,FRACC RIO NUEVO,21100,"MEXICALI, Mexicali, BAJA CALIFORNIA",6865557243,,,Fijo,-115.49478303,32.66385718,,,,Baja California
02002722219005221001000000U4,57640,ASADERO EL TROMPO,,Restaurantes con servicio de preparación de tacos y tortas,6 a 10 personas,CALLE,AGUSTIN MELGAR,143,,FRACC RIO NUEVO,21100,"MEXICALI, Mexicali, BAJA CALIFORNIA",6865523253,,,Fijo,-115.49478258,32.66406540,,,,Baja California
02002722219004581001000000U2,86553,POLLOS EL ANGEL,,"Restaurantes con servicio de preparación de pizzas, hamburguesas, hot dogs y pollos rostizados para llevar",6 a 10 personas,CALLE,JOSE MARIA MORELOS Y PAVON,461,,FRACC RIO NUEVO,21100,"MEXICALI, Mexicali, BAJA CALIFORNIA",6861695390,,,Fijo,-115.48889993,32.65937751,,,,Baja California
02002722514004961000000000U0,6930235,TORTAS B.C.,,Restaurantes con servicio de preparación de tacos y tortas,0 a 5 personas,CALLE,JOSE MARIA MORELOS Y PAVON,468,0,FRACC RIO NUEVO,21100,"MEXICALI, Mexicali, BAJA CALIFORNIA",,,,Fijo,-115.48912288,32.65920231,,,,Baja California
02002722511003973000000000U2,8346433,HAIKU COMIDA + CULTURA JAPONESA,,Restaurantes con servicio de preparación de alimentos a la carta o de comida corrida,11 a 30 personas,AVENIDA,ZUAZUA,453,,FRACC RIO NUEVO,21100,"MEXICALI, Mexicali, BAJA CALIFORNIA",6861056190,,,Fijo,-115.49042754,32.65897470,,,,Baja California
02002722219010222000000000U5,57289,CAFE TUNG FONG,,Restaurantes con servicio de preparación de alimentos a la carta o de comida corrida,6 a 10 personas,AVENIDA,ZUAZUA,81,0,FRACC RIO NUEVO,21100,"MEXICALI, Mexicali, BAJA CALIFORNIA",6865522881,,,Fijo,-115.48934225,32.65899100,,,,Baja California
02002722513003121000000000U4,6930350,LONCHERIA,,Restaurantes con servicio de preparación de antojitos,0 a 5 personas,AVENIDA,ZUAZUA,0,20,FRACC RIO NUEVO,21100,"MEXICALI, Mexicali, BAJA CALIFORNIA",,,,Fijo,-115.49063763,32.65885543,,,,Baja California
02002722513003131000000000U3,6930355,MENUDO Y BIRRIA EL VA Y VEN,,Restaurantes con servicio de preparación de antojitos,0 a 5 personas,AVENIDA,ZUAZUA,16,0,FRACC RIO NUEVO,21100,"MEXICALI, Mexicali, BAJA CALIFORNIA",,,,Fijo,-115.49070216,32.65885385,,,,Baja California
02002722513004211000000000S2,8370305,MENUDERIA SANTA ANA,,Restaurantes con servicio de preparación de antojitos,0 a 5 personas,AVENIDA,ZUAZUA,0,0,FRACC RIO NUEVO,21100,"MEXICALI, Mexicali, BAJA CALIFORNIA",,,,Fijo,-115.49072560,32.65885328,,,,Baja California
02002722513003991000000000S0,9035197,MENUDERIA SANTA ANA,,Restaurantes con servicio de preparación de antojitos,0 a 5 personas,AVENIDA,ZUAZUA,0,32,FRACC RIO NUEVO,21100,"MEXICALI, Mexicali, BAJA CALIFORNIA",,,,Fijo,-115.49073467,32.65885306,,,,Baja California
02002722219007811000000000U0,57361,MENUDERIA SANTA ANA,,Restaurantes con servicio de preparación de antojitos,0 a 5 personas,AVENIDA,ZUAZUA,0,29,FRACC RIO NUEVO,21100,"MEXICALI, Mexicali, BAJA CALIFORNIA",6862774942,,,Fijo,-115.49074360,32.65885284,,,,Baja California
02002722513003111000000000S5,6930347,MENUDERIA ROSARIO,,Restaurantes con servicio de preparación de antojitos,0 a 5 personas,AVENIDA,ZUAZUA,14,0,FRACC RIO NUEVO,21100,"MEXICALI, Mexicali, BAJA CALIFORNIA",,,,Fijo,-115.49080004,32.65885145,,,,Baja California
02002722212000561000000000U3,57356,LONCHERIA ROSITA,,Restaurantes con servicio de preparación de tacos y tortas,0 a 5 personas,AVENIDA,ZUAZUA,0,39,FRACC RIO NUEVO,21100,"MEXICALI, Mexicali, BAJA CALIFORNIA",,,,Fijo,-115.49083467,32.65885060,,,,Baja California
02002722110000703001000000U7,57351,RESTAURANTE LA CHINITA,,Restaurantes con servicio de preparación de alimentos a la carta o de comida corrida,11 a 30 personas,AVENIDA,ZUAZUA,0,22,FRACC RIO NUEVO,21100,"MEXICALI, Mexicali, BAJA CALIFORNIA",6865536974,,,Fijo,-115.49087946,32.65884951,,,,Baja California
02002722219007511000000000U6,57360,MENUDERIA ROSARIO,,Restaurantes con servicio de preparación de antojitos,0 a 5 personas,AVENIDA,ZUAZUA,0,714,FRACC RIO NUEVO,21100,"MEXICALI, Mexicali, BAJA CALIFORNIA",,,,Fijo,-115.49096591,32.65884739,,,,Baja California
02002722219006381000000000U5,57352,MENUDERIA SANDRA,,Restaurantes con servicio de preparación de antojitos,0 a 5 personas,AVENIDA,ZUAZUA,0,10,FRACC RIO NUEVO,21100,"MEXICALI, Mexicali, BAJA CALIFORNIA",,,,Fijo,-115.49105237,32.65884526,,,,Baja California
02002722219004931000000000U9,57359,BIRRIERIA JALISCO,,Restaurantes con servicio de preparación de antojitos,0 a 5 personas,AVENIDA,ZUAZUA,9,0,FRACC RIO NUEVO,21100,"MEXICALI, Mexicali, BAJA CALIFORNIA",6861549061,,,Fijo,-115.49110149,32.65884406,,,,Baja California
02002722518000131000000000U5,86569,FONDITA LUPITA,,Restaurantes que preparan otro tipo de alimentos para llevar,0 a 5 personas,AVENIDA,ZUAZUA,498,0,FRACC RIO NUEVO,21100,"MEXICALI, Mexicali, BAJA CALIFORNIA",,,,Fijo,-115.48939897,32.65884620,,,,Baja California
03003722219000261000000000U2,163469,LONCHERIA LA COLONIAL,,Restaurantes con servicio de preparación de tacos y tortas,0 a 5 personas,AVENIDA,REVOLUCION DE 1910,0,0,CENTRO,23000,"LA PAZ, La Paz, BAJA CALIFORNIA SUR",6121586578,RAIMUNDO_LPZ003@DUGORT.COM,,Fijo,-110.31590480,24.15847661,,,,Baja California Sur
03003722219000591000000000U2,163470,LONCHERIA LOS CAMPERROS,,Restaurantes con servicio de preparación de antojitos,0 a 5 personas,AVENIDA,REVOLUCION DE 1910,0,0,CENTRO,23000,"LA PAZ, La Paz, BAJA CALIFORNIA SUR",,,,Fijo,-110.31590632,24.15847478,,,,Baja California Sur
03003722219004051000000000U3,163472,LONCHERÍA ARACELI,,Restaurantes con servicio de preparación de antojitos,0 a 5 personas,AVENIDA,REVOLUCION DE 1910,0,0,CENTRO,23000,"LA PAZ, La Paz, BAJA CALIFORNIA SUR",6121053991,,,Fijo,-110.31590710,24.15847384,,,,Baja California Sur
03003722219004061000000000U2,163473,LONCHERÍA CALAFIA,,Restaurantes con servicio de preparación de antojitos,0 a 5 personas,AVENIDA,REVOLUCION DE 1910,0,0,CENTRO,23000,"LA PAZ, La Paz, BAJA CALIFORNIA SUR",6121571083,,,Fijo,-110.31590061,24.15848167,,,,Baja California Sur
03003722219004242001000000U8,163471,LONCHERIA ADRIANA,,Restaurantes con servicio de preparación de antojitos,6 a 10 personas,AVENIDA,REVOLUCION DE 1910,0,0,CENTRO,23000,"LA PAZ, La Paz, BAJA CALIFORNIA SUR",6121220441,,,Fijo,-110.31587426,24.15851352,,,,Baja California Sur
03003722211000091010000000U0,163544,LA TORRE PIZZA,,"Restaurantes con servicio de preparación de pizzas, hamburguesas, hot dogs y pollos rostizados para llevar",0 a 5 personas,CALLE,MELCHOR OCAMPO,,,ZONA COMERCIAL,23000,"LA PAZ, La Paz, BAJA CALIFORNIA SUR",,,,Fijo,-110.31609975,24.15800901,,,,Baja California Sur
03003722514002591000000000U4,9253397,TACOS EL GORDO,,Restaurantes con servicio de preparación de tacos y tortas,0 a 5 personas,CALLE,MELCHOR OCAMPO,,,CENTRO,23000,"LA PAZ, La Paz, BAJA CALIFORNIA SUR",,,,Semifijo,-110.31645991,24.15825597,,,,Baja California Sur
03003722514002691000000000U2,9340011,TAQUERIA EL TIGRE,,Restaurantes con servicio de preparación de tacos y tortas,0 a 5 personas,AVENIDA,REVOLUCION DE 1910,,,CENTRO,,"LA PAZ, La Paz, BAJA CALIFORNIA SUR",,PANTERAS.JAR@GMAIL.COM,,Fijo,-110.31638610,24.15804428,,,,Baja California Sur
03003722511003022000000000U5,9106394,QUESABROSO,,Restaurantes con servicio de preparación de alimentos a la carta o de comida corrida,6 a 10 personas,CALLE,MELCHOR OCAMPO,,,ZONA COMERCIAL,23000,"LA PAZ, La Paz, BAJA CALIFORNIA SUR",,,,Fijo,-110.31596192,24.15780174,,,,Baja California Sur
03003722514002211000000000U9,7815644,LA PUERTITA,,Restaurantes con servicio de preparación de tacos y tortas,0 a 5 personas,CALLE,SANTOS DEGOLLADO,,,ZONA COMERCIAL,23000,"LA PAZ, La Paz, BAJA CALIFORNIA SUR",,,,Fijo,-110.31509444,24.15868538,,,,Baja California Sur
03003722212003561001000000S7,163571,PIZZERIA RIN RIN,,"Restaurantes con servicio de preparación de pizzas, hamburguesas, hot dogs y pollos rostizados para llevar",6 a 10 personas,AVENIDA,REVOLUCION DE 1910,,,ZONA COMERCIAL,23000,"LA PAZ, La Paz, BAJA CALIFORNIA SUR",6121890468,ALYSB03@HOTMAIL.COM,,Fijo,-110.31646901,24.15779478,,,,Baja California Sur
03003722514000601000000000U3,173708,TAQUERIA EL MO,,Restaurantes con servicio de preparación de tacos y tortas,0 a 5 personas,CALLE,MELCHOR OCAMPO,,,ZONA COMERCIAL,23000,"LA PAZ, La Paz, BAJA CALIFORNIA SUR",6121555476,,,Semifijo,-110.31687384,24.15842703,,,,Baja California Sur
03003722219000361000000000U0,163460,SUPER TACOS DE BAJA CALIFORNIA SUR HERMANOS GONZALEZ,,Restaurantes con servicio de preparación de tacos y tortas,0 a 5 personas,CALLE,SANTOS DEGOLLADO,,,CENTRO,23000,"LA PAZ, La Paz, BAJA CALIFORNIA SUR",6121868592,,,Semifijo,-110.31625694,24.15936468,,,,Baja California Sur
03003722212001051000000000U1,163583,TACOS CHENCHO,,Restaurantes con servicio de preparación de tacos y tortas,0 a 5 personas,AVENIDA,REVOLUCION DE 1910,,,CENTRO,23000,"LA PAZ, La Paz, BAJA CALIFORNIA SUR",,,,Semifijo,-110.31659444,24.15779251,,,,Baja California Sur
03003722516000322000000000U1,8334478,BAMBOO,,Restaurantes con servicio de preparación de alimentos a la carta o de comida corrida,6 a 10 personas,AVENIDA,REVOLUCION DE 1910,,,ZONA COMERCIAL,23000,"LA PAZ, La Paz, BAJA CALIFORNIA SUR",6121297543,,,Fijo,-110.31534025,24.15931232,,,,Baja California Sur
03003722212004723001000000M2,6288949,CALIFORNIA CHICKEN,RESTAURANTES GREEW S DE RL DE CV,"Restaurantes con servicio de preparación de pizzas, hamburguesas, hot dogs y pollos rostizados para llevar",31 a 50 personas,CALLE,AQUILES SERDAN,,1740,ZONA COMERCIAL,23000,"LA PAZ, La Paz, BAJA CALIFORNIA SUR",,,,Fijo,-110.31496066,24.15782743,,,,Baja California Sur
03003722219004102000049165S4,163445,SENOR SUSHI,GRUPO AHM SA DE CV,Restaurantes que preparan otro tipo de alimentos para llevar,6 a 10 personas,CALLE,FRANCISCO I. MADERO,,,ZONA COMERCIAL,23000,"LA PAZ, La Paz, BAJA CALIFORNIA SUR",6121223425,,,Fijo,-110.31669287,24.15947124,,,,Baja California Sur
03003722219003151001000000U2,163446,FFYY CHOY,,Restaurantes con servicio de preparación de alimentos a la carta o de comida corrida,6 a 10 personas,CALLE,FRANCISCO I. MADERO,,,ZONA COMERCIAL,23000,"LA PAZ, La Paz, BAJA CALIFORNIA SUR",6121228303,,,Fijo,-110.31722533,24.15882320,,,,Baja California Sur
03003722517002891000000000S1,8334482,ROSTICERIAS JERICO,,"Restaurantes con servicio de preparación de pizzas, hamburguesas, hot dogs y pollos rostizados para llevar",0 a 5 personas,CALLE,AQUILES SERDAN,,,ZONA COMERCIAL,23000,"LA PAZ, La Paz, BAJA CALIFORNIA SUR",,,,Fijo,-110.31568876,24.15709261,,,,Baja California Sur
03003722517000693001000000U3,173713,EL MEZQUITE GRILL,,"Restaurantes con servicio de preparación de pizzas, hamburguesas, hot dogs y pollos rostizados para llevar",0 a 5 personas,CALLE,FRANCISCO I. MADERO,,,ZONA COMERCIAL,23000,"LA PAZ, La Paz, BAJA CALIFORNIA SUR",6128594733,,,Fijo,-110.31751955,24.15846509,,,,Baja California Sur
03003722511001851000000000U9,8917069,RESTAURANTE ESPERANZAS,,Restaurantes con servicio de preparación de alimentos a la carta o de comida corrida,0 a 5 personas,CALLE,IGNACIO ZARAGOZA,,,CENTRO,23000,"LA PAZ, La Paz, BAJA CALIFORNIA SUR",6121529189,,,Fijo,-110.31675416,24.15977096,,,,Baja California Sur
03003722514000961000000000U1,173759,TACOS Y HAMBURGUESAS JULISSA,,Restaurantes con servicio de preparación de tacos y tortas,0 a 5 personas,CALLE,NICOLAS BRAVO,314,,ZONA COMERCIAL,23000,"LA PAZ, La Paz, BAJA CALIFORNIA SUR",6122042563,,,Fijo,-110.31642136,24.15691142,,,,Baja California Sur
03003722515004891000000000U3,8334765,TAQUERIA JANINE,,Restaurantes con servicio de preparación de tacos y tortas,0 a 5 personas,CALLE,SANTOS DEGOLLADO,,,ZONA COMERCIAL,23000,"LA PAZ, La Paz, BAJA CALIFORNIA SUR",,,,Semifijo,-110.31416959,24.15804743,,,,Baja California Sur
03003722511000271000000000U1,173690,SERVI COCINA,,Restaurantes con servicio de preparación de alimentos a la carta o de comida corrida,0 a 5 personas,CALLE,NICOLAS BRAVO,280,,ZONA COMERCIAL,23000,"LA PAZ, La Paz, BAJA CALIFORNIA SUR",,,,Fijo,-110.31633219,24.15685007,,,,Baja California Sur
03003722511001561000000000U4,6916851,MANGO BLUES,,Restaurantes con servicio de preparación de alimentos a la carta o de comida corrida,0 a 5 personas,CALLE,NICOLAS BRAVO,,,CENTRO,23000,"LA PAZ, La Paz, BAJA CALIFORNIA SUR",4491851186,,,Fijo,-110.31742032,24.15748626,,,,Baja California Sur
03003722219003971000000000U3,169233,SOKOS CAFÉ,,Restaurantes con servicio de preparación de alimentos a la carta o de comida corrida,0 a 5 personas,CALLE,16 DE SEPTIEMBRE,220,,CENTRO,23000,"LA PAZ, La Paz, BAJA CALIFORNIA SUR",6121252724,,,Fijo,-110.31464332,24.15977849,,,,Baja California Sur
03003722511002991000000000U2,8160616,D KAFE,,Restaurantes con servicio de preparación de alimentos a la carta o de comida corrida,0 a 5 personas,CALLE,16 DE SEPTIEMBRE,,,ZONA COMERCIAL,23000,"LA PAZ, La Paz, BAJA CALIFORNIA SUR",6121256164,,,Fijo,-110.31513348,24.16033178,,,,Baja California Sur
03003722513001031010000000U4,173707,TACOS TOÑO,,Restaurantes con servicio de preparación de tacos y tortas,0 a 5 personas,CALLE,FRANCISCO I. MADERO,,,CENTRO,23000,"LA PAZ, La Paz, BAJA CALIFORNIA SUR",,,,Fijo,-110.31543313,24.16043852,,,,Baja California Sur
03003722212004372000000000U8,163601,TRATTORIA IL RUSTICO,EXPEDITION DIVE SA DE CV,Restaurantes con servicio de preparación de alimentos a la carta o de comida corrida,11 a 30 personas,AVENIDA,REVOLUCION DE 1910,1930,,ZONA COMERCIAL,23000,"LA PAZ, La Paz, BAJA CALIFORNIA SUR",612123001,EXPEDITIONDIVE@YAHOO.IT,WWW.ILRUSTICOLAPAZBCSMX.COM,Fijo,-110.31722083,24.15688620,,,,Baja California Sur
03003722511002953000000000U2,8653254,LA CASA VIEJA RESTAURANTE GRIL,,Restaurantes con servicio de preparación de alimentos a la carta o de comida corrida,11 a 30 personas,CALLE,SEBASTIAN LERDO DE TEJADA,,,CENTRO,23000,"LA PAZ, La Paz, BAJA CALIFORNIA SUR",,,,Fijo,-110.31754135,24.15999375,,,,Baja California Sur
03003722512000761000000000U9,8334766,RESTAURANTE MILACHO,,Restaurantes con servicio de preparación de pescados y mariscos,0 a 5 personas,CALLE,16 DE SEPTIEMBRE,,,ZONA COMERCIAL,23000,"LA PAZ, La Paz, BAJA CALIFORNIA SUR",,,,Fijo,-110.31363822,24.15896618,,,,Baja California Sur
03003722219005043001000000U9,163840,RESTAURANTE LA MURALLA CHINA,,Restaurantes con servicio de preparación de alimentos a la carta o de comida corrida,0 a 5 personas,CALLE,NICOLAS BRAVO,,,CENTRO,23000,"LA PAZ, La Paz, BAJA CALIFORNIA SUR",6121253962,LAMURALLACHINABCS@HOTMAIL.COM,,Fijo,-110.31575582,24.15634127,,,,Baja California Sur
03003722219004872001000000U2,163798,TORTAS AGUAYO,,Restaurantes con servicio de preparación de tacos y tortas,6 a 10 personas,CALLE,GUILLERMO PRIETO,,,ZONA CENTRO,23000,"LA PAZ, La Paz, BAJA CALIFORNIA SUR",6121288048,,,Fijo,-110.31413240,24.15703378,,,,Baja California Sur
03003722517002913000000000U3,8334604,BIG PIZZA,,"Restaurantes con servicio de preparación de pizzas, hamburguesas, hot dogs y pollos rostizados para llevar",11 a 30 personas,CALLE,16 DE SEPTIEMBRE,,,ZONA COMERCIAL,23000,"LA PAZ, La Paz, BAJA CALIFORNIA SUR",,,,Fijo,-110.31526693,24.16070462,,,,Baja California Sur
03003722514000911000000000U6,173869,TAQUERIA EL GUERO FUGAS,,Restaurantes con servicio de preparación de tacos y tortas,0 a 5 personas,CALLE,FRANCISCO I. MADERO,,,CENTRO,23000,"LA PAZ, La Paz, BAJA CALIFORNIA SUR",,,,Fijo,-110.31507011,24.16071474,,,,Baja California Sur
03003722517000431001000000U8,173755,BIG PIZZA,,"Restaurantes con servicio de preparación de pizzas, hamburguesas, hot dogs y pollos rostizados para llevar",6 a 10 personas,CALLE,16 DE SEPTIEMBRE,,,ZONA COMERCIAL,23000,"LA PAZ, La Paz, BAJA CALIFORNIA SUR",,,,Fijo,-110.31529071,24.16079841,,,,Baja California Sur
03003722513001551000000000U1,6916831,ANTOJITOS CADELAS,,Restaurantes con servicio de preparación de antojitos,0 a 5 personas,CALLE,GUILLERMO PRIETO,,,ZONA CENTRO,23000,"LA PAZ, La Paz, BAJA CALIFORNIA SUR",6121022842,,,Fijo,-110.31316447,24.15820984,,,,Baja California Sur
03003722512000742000000000S9,8334324,CLAROS JR,,Restaurantes con servicio de preparación de pescados y mariscos,6 a 10 personas,CALLE,MUTUALISMO,0,0,ZONA COMERCIAL,23000,"LA PAZ, La Paz, BAJA CALIFORNIA SUR",,,,Fijo,-110.31884087,24.15843042,,,,Baja California Sur
03003722513001711000000000U1,8403116,BIRRIERIA EL KIRO,,Restaurantes con servicio de preparación de antojitos,0 a 5 personas,CALLE,GUILLERMO PRIETO,,,CENTRO,23000,"LA PAZ, La Paz, BAJA CALIFORNIA SUR",,,,Semifijo,-110.31519049,24.15589799,,,,Baja California Sur
03003722513001541000000000U2,6916730,BIRRIERIA TECATLITLAN,,Restaurantes con servicio de preparación de antojitos,0 a 5 personas,CALLE,REFORMA,,,CENTRO,23000,"LA PAZ, La Paz, BAJA CALIFORNIA SUR",6121773900,,,Semifijo,-110.31402073,24.16054365,,,,Baja California Sur
03003722511003141000000000U3,9361243,DOBLE PLAY MALECON,,Restaurantes con servicio de preparación de alimentos a la carta o de comida corrida,0 a 5 personas,CALLE,MUTUALISMO,,,CENTRO,23000,"LA PAZ, La Paz, BAJA CALIFORNIA SUR",,DOBLEPLAY@HOTMAIL.COM,,Fijo,-110.31892739,24.15836084,,,,Baja California Sur
03003722212003991000000000S6,163809,CARNITAS LOS MICHOACANO,,Restaurantes con servicio de preparación de antojitos,0 a 5 personas,CALLE,NICOLAS BRAVO,0,0,ZONA CENTRO,23000,"LA PAZ, La Paz, BAJA CALIFORNIA SUR",6121523144,,,Fijo,-110.31483745,24.15582157,,,,Baja California Sur
03003722219000941000000000U9,163831,LONCHERIA LUPITA,,Restaurantes con servicio de preparación de tacos y tortas,0 a 5 personas,CALLE,NICOLAS BRAVO,0,0,ZONA CENTRO,23000,"LA PAZ, La Paz, BAJA CALIFORNIA SUR",,,,Fijo,-110.31479835,24.15579467,,,,Baja California Sur
03003722513001941000000000U4,7815646,TORTAS Y HAMBURGUESAS FABY,,Restaurantes con servicio de preparación de tacos y tortas,0 a 5 personas,CALLE,NICOLAS BRAVO,,,CENTRO,23000,"LA PAZ, La Paz, BAJA CALIFORNIA SUR",,,,Fijo,-110.31475722,24.15576637,,,,Baja California Sur
03003722511000941000000000U9,173831,TIO PAPA,,Restaurantes con servicio de preparación de alimentos a la carta o de comida corrida,0 a 5 personas,CALLE,FRANCISCO I. MADERO,,,CENTRO,23000,"LA PAZ, La Paz, BAJA CALIFORNIA SUR",6121227555,,,Fijo,-110.31465384,24.16119815,,,,Baja California Sur
03003722219003601000000000U6,163832,LONCHERIA LA MORENA,,Restaurantes con servicio de preparación de antojitos,0 a 5 personas,CALLE,NICOLAS BRAVO,0,0,ZONA CENTRO,23000,"LA PAZ, La Paz, BAJA CALIFORNIA SUR",6121077396,,,Fijo,-110.31473773,24.15575295,,,,Baja California Sur
03003722511000631000000000U6,173709,LA TOMATINA,,Restaurantes con servicio de preparación de alimentos a la carta o de comida corrida,0 a 5 personas,CALLE,16 DE SEPTIEMBRE,0,0,CENTRO,23000,"LA PAZ, La Paz, BAJA CALIFORNIA SUR",,,,Fijo,-110.31544663,24.16141278,,,,Baja California Sur
03003722219000731000000000U4,163810,ANTOJITOS TONY,,Restaurantes con servicio de preparación de antojitos,0 a 5 personas,CALLE,NICOLAS BRAVO,0,0,ZONA CENTRO,23000,"LA PAZ, La Paz, BAJA CALIFORNIA SUR",6121287316,,,Fijo,-110.31469868,24.15572608,,,,Baja California Sur
03003722511001861000000000U8,8917113,ARTESANO RESTAURANTE,,Restaurantes con servicio de preparación de alimentos a la carta o de comida corrida,0 a 5 personas,CALLE,SANTOS DEGOLLADO,,,ZONA CENTRO,23000,"LA PAZ, La Paz, BAJA CALIFORNIA SUR",6121578071,,,Fijo,-110.31293532,24.15719603,,,,Baja California Sur
03003722219000381000000000U8,163829,LONCHERIA MARY,,Restaurantes con servicio de preparación de antojitos,0 a 5 personas,CALLE,NICOLAS BRAVO,0,0,ZONA CENTRO,23000,"LA PAZ, La Paz, BAJA CALIFORNIA SUR",,,,Fijo,-110.31464423,24.15568863,,,,Baja California Sur
03003722511001841000000000U0,8917068,JUSTINE TOURS,,Restaurantes con servicio de preparación de alimentos a la carta o de comida corrida,0 a 5 personas,CALLE,PASEO ALVARO OBREGON,,,CENTRP,23000,"LA PAZ, La Paz, BAJA CALIFORNIA SUR",,NOCOLASBANUELOS@PRODIGY.NET.MX,,Fijo,-110.31875035,24.16009759,,,,Baja California Sur
03003722219004021001000000U6,174031,LONCHERIA LA MORENA 2,,Restaurantes con servicio de preparación de antojitos,6 a 10 personas,CALLE,NICOLAS BRAVO,0,0,ZONA CENTRO,23000,"LA PAZ, La Paz, BAJA CALIFORNIA SUR",6121416765,HERIBERTO.VIBIANO@HOTMAIL.COM,,Fijo,-110.31463718,24.15568378,,,,Baja California Sur
03003722219000471000000000U7,163830,LONCHERIA CARMELITA,,Restaurantes con servicio de preparación de antojitos,0 a 5 personas,CALLE,NICOLAS BRAVO,0,0,ZONA CENTRO,23000,"LA PAZ, La Paz, BAJA CALIFORNIA SUR",,,,Fijo,-110.31461117,24.15566586,,,,Baja California Sur
03003722511002252000000000U9,8334708,BAJA FUSION,,Restaurantes con servicio de preparación de alimentos a la carta o de comida corrida,6 a 10 personas,CALLE,NICOLAS BRAVO,,38,CENTRO,23000,"LA PAZ, La Paz, BAJA CALIFORNIA SUR",6121404078,,,Fijo,-110.31461007,24.15566510,,,,Baja California Sur
03003813110000371000000000U0,6916834,CAMARA NACIONAL DE LA INDUSTRIA DE RESTAURANTES Y ALIMENTOS CONDIMENTADOS,CAMARA NACIONAL DE LA INDUSTRIA DE RESTAURANTES Y ALIMENTOS CONDIMENTADOS ,"Asociaciones, organizaciones y cámaras de productores, comerciantes y prestadores de servicios",0 a 5 personas,CALLE,FRANCISCO I. MADERO,,,CENTRO,23000,"LA PAZ, La Paz, BAJA CALIFORNIA SUR",6121682461,LAPAZ@CANIRAC.ORG.MX,,Fijo,-110.31459243,24.16141455,,,,Baja California Sur
03003722511001531000000000U7,6916725,LA CHOYA JAROCHA,,Restaurantes con servicio de preparación de alimentos a la carta o de comida corrida,0 a 5 personas,AVENIDA,REVOLUCION DE 1910,1450,,CENTRO,23000,"LA PAZ, La Paz, BAJA CALIFORNIA SUR",,,,Fijo,-110.31380266,24.16104122,,,,Baja California Sur
03003722511001791000000000U7,8403174,LA CASA DE LA CARNE EN SU JUGO,,Restaurantes con servicio de preparación de alimentos a la carta o de comida corrida,0 a 5 personas,CALLE,REFORMA,395,,CENTRO,23000,"LA PAZ, La Paz, BAJA CALIFORNIA SUR",6121473386,,,Fijo,-110.31253092,24.15948821,,,,Baja California Sur
03003722518000921000000000U6,8334421,JALAPEÑOS,,Restaurantes que preparan otro tipo de alimentos para llevar,0 a 5 personas,CALLEJON,21 DE AGOSTO,0,0,ZONA COMERCIAL,23000,"LA PAZ, La Paz, BAJA CALIFORNIA SUR",,,,Fijo,-110.31640630,24.16174221,,,,Baja California Sur
03003722513001571000000000U9,6916991,GORDITAS EL CACHETON,,Restaurantes con servicio de preparación de antojitos,0 a 5 personas,CALLE,NICOLAS BRAVO,0,0,ZONA CENTRO,23000,"LA PAZ, La Paz, BAJA CALIFORNIA SUR",,,,Fijo,-110.31437195,24.15550127,,,,Baja California Sur
03003722219005083000000000U5,163419,RESTAURANTE JEON-SAN,,Restaurantes con servicio de preparación de alimentos a la carta o de comida corrida,0 a 5 personas,AVENIDA,REVOLUCION DE 1910,,,ZONA COMERCIAL,23000,"LA PAZ, La Paz, BAJA CALIFORNIA SUR",,JOAQUIN_WUM@HOTMAIL.COM,,Fijo,-110.31370143,24.16116495,,,,Baja California Sur
03003722514001591000000000U5,173872,DAVIROS GRILL,,Restaurantes con servicio de preparación de tacos y tortas,0 a 5 personas,CALLE,BELISARIO DOMINGUEZ,1444,,CENTRO,23000,"LA PAZ, La Paz, BAJA CALIFORNIA SUR",6121592863,,,Fijo,-110.31505782,24.16185922,,,,Baja California Sur
03003722511001511000000000U9,6916672,CLAMS AND BEER,,Restaurantes con servicio de preparación de alimentos a la carta o de comida corrida,0 a 5 personas,CALLE,BELISARIO DOMINGUEZ,,,CENTRO,23000,"LA PAZ, La Paz, BAJA CALIFORNIA SUR",6121056174,BAHIARENTAS@HOTMAIL.COM,,Fijo,-110.31499831,24.16191000,,,,Baja California Sur
03003722514002651000000000U6,9361736,CHORIPANES LA PAZ,,Restaurantes con servicio de preparación de tacos y tortas,0 a 5 personas,CALLE,GUILLERMO PRIETO,,,CENTRO,23000,"LA PAZ, La Paz, BAJA CALIFORNIA SUR",,,,Fijo,-110.31600567,24.15490745,,,,Baja California Sur
03003722512000831000000000U0,9035904,TACOS RAUL,,Restaurantes con servicio de preparación de pescados y mariscos,0 a 5 personas,CALLE,SANTOS DEGOLLADO,604,,ZONA CENTRO,23000,"LA PAZ, La Paz, BAJA CALIFORNIA SUR",6122294665,,,Fijo,-110.31238479,24.15681600,,,,Baja California Sur
03003722511003111000000000U6,9253389,BAJA BBQ PIT,,Restaurantes con servicio de preparación de alimentos a la carta o de comida corrida,0 a 5 personas,CALLE,IGNACIO ALLENDE,188,,CENTRO,23000,"LA PAZ, La Paz, BAJA CALIFORNIA SUR",,,,Fijo,-110.31885062,24.15589513,,,,Baja California Sur
03003722511002173000000000U7,8334415,CASA MAR RESTAURANTE,EDOS PROYECTOS E INVERSIONES SA DE CV,Restaurantes con servicio de preparación de alimentos a la carta o de comida corrida,11 a 30 personas,CALLE,AGUSTIN ARREOLA,25,0,ZONA COMERCIAL,23000,"LA PAZ, La Paz, BAJA CALIFORNIA SUR",,INFO@CSAALMAR.MX,CASAALMAR.MX,Fijo,-110.31790318,24.16181870,,,,Baja California Sur
03003812410000351000000000U7,6916856,ESTACIONAMIENTO DEL RESTAURANTE DE MARISCOS BOB MARLEY,ESTACIONAMIENTO DEL RESTAURANTE DE MARISCOS BOB MARLEY ,Estacionamientos y pensiones para vehículos automotores,0 a 5 personas,CALLE,IGNACIO ALLENDE,,,CENTRO,23000,"LA PAZ, La Paz, BAJA CALIFORNIA SUR",,,,Fijo,-110.31924320,24.15617050,,,,Baja California Sur
03003722512000541000000000U5,6916850,MARISCOS BOB MARLEY,,Restaurantes con servicio de preparación de pescados y mariscos,0 a 5 personas,CALLE,IGNACIO ALLENDE,,,CENTRO,23000,"LA PAZ, La Paz, BAJA CALIFORNIA SUR",,,,Fijo,-110.31926053,24.15618266,,,,Baja California Sur
03003722517000381001000000U5,174079,FUEGO Y LEÑA,,"Restaurantes con servicio de preparación de pizzas, hamburguesas, hot dogs y pollos rostizados para llevar",6 a 10 personas,CALLE,IGNACIO ALLENDE,169,,ZONA COMERCIAL,23000,"LA PAZ, La Paz, BAJA CALIFORNIA SUR",6121112489,,,Fijo,-110.31897836,24.15587104,,,,Baja California Sur
03003722517003831000000000U6,9253407,EL POLLON Y SUS BOTANAS,,"Restaurantes con servicio de preparación de pizzas, hamburguesas, hot dogs y pollos rostizados para llevar",0 a 5 personas,CALLE,16 DE SEPTIEMBRE,,,CENTRO,23000,"LA PAZ, La Paz, BAJA CALIFORNIA SUR",,,,Fijo,-110.31181316,24.15781275,,,,Baja California Sur
03003311812001682011000000U7,174080,DULCE ROMERO PANADERIA Y ORGANICOS,,Restaurantes con servicio de preparación de alimentos a la carta o de comida corrida,11 a 30 personas,CALLE,IGNACIO ALLENDE,167,,ZONA COMERCIAL,23000,"LA PAZ, La Paz, BAJA CALIFORNIA SUR",6121852095,DULCEROMEROPANADERIA@GMAIL.COM,,Fijo,-110.31906130,24.15592921,,,,Baja California Sur
03003722219004862001000000U3,168627,RESTAURANTE EL DRAGON DE ORO,,Restaurantes con servicio de preparación de alimentos a la carta o de comida corrida,6 a 10 personas,CALLE,IGNACIO ALLENDE,0,0,ZONA COMERCIAL,23000,"LA PAZ, La Paz, BAJA CALIFORNIA SUR",6121251378,,,Fijo,-110.31947100,24.15633029,,,,Baja California Sur
03003721111000112000000000U7,6288731,HOTEL PERLA,HOTELES Y RESTAURANTES SA DE CV,Hoteles con otros servicios integrados,101 a 250 personas,CALLE,PASEO ÁLVARO OBREGÓN,1570,,CENTRO,23000,"LA PAZ, La Paz, BAJA CALIFORNIA SUR",,HOTELCXP@HOTELPERLABAJA.COM,WWW.HOTELPERLABAJA.COM,Fijo,-110.31791879,24.16205393,,,,Baja California Sur
03003722219004092000000000U7,163854,BIRRIERIA JALISCO,,Restaurantes con servicio de preparación de antojitos,6 a 10 personas,,IGNACIO RAMÍREZ,0,0,CENTRO,23000,"LA PAZ, La Paz, BAJA CALIFORNIA SUR",,,,Fijo,-110.31478788,24.15459343,,,,Baja California Sur
03003722511002201000000000U6,8334594,RESTAURANTE BAR LA LLORONA,,Restaurantes con servicio de preparación de alimentos a la carta o de comida corrida,0 a 5 personas,CALLEJON,LA PAZ,,,ZONA COMERCIAL,23000,"LA PAZ, La Paz, BAJA CALIFORNIA SUR",6121554678,,,Fijo,-110.31725032,24.16234736,,,,Baja California Sur
03003722511001572000000000U1,6916933,LA LOLITA,,Restaurantes con servicio de preparación de alimentos a la carta o de comida corrida,6 a 10 personas,CALLE,M. CARLOS M. ESQUERRO,12,,CENTRO,23000,"LA PAZ, La Paz, BAJA CALIFORNIA SUR",6121312368,,,Fijo,-110.31669442,24.16257065,,,,Baja California Sur
03003722511001761000000000U0,8402997,EVENTL,,Restaurantes con servicio de preparación de alimentos a la carta o de comida corrida,0 a 5 personas,CALLE,MELCHOR OCAMPO,,,ZONA CENTRO,23000,"LA PAZ, La Paz, BAJA CALIFORNIA SUR",,EVENTI.LAPAZ@GMAIL.COM,,Fijo,-110.31267580,24.15554842,,,,Baja California Sur
03003721111000162001000000U2,6288819,HOTEL MEDITERRANEO Y RESTAURANTE LA PAZTA,OPERADORA TURISTICA EUROBAJA S DE RL ,Hoteles con otros servicios integrados,11 a 30 personas,CALLE,IGNACIO ALLENDE,36,0,CENTRO,23000,"LA PAZ, La Paz, BAJA CALIFORNIA SUR",,MAIL@HOTELMED.COM,WWW.HOTELMED.COM,Fijo,-110.32016747,24.15681882,,,,Baja California Sur
03003722219005012000000000M4,163735,RESTAURANTE BISMARK,,Restaurantes con servicio de preparación de alimentos a la carta o de comida corrida,6 a 10 personas,CALLE,SANTOS DEGOLLADO,,,CENTRO,23000,"LA PAZ, La Paz, BAJA CALIFORNIA SUR",,RESTAURANTESBISMARK@GMAIL.COM,,Fijo,-110.31185470,24.15644986,,,,Baja California Sur
03003722516000332000000000U0,8334700,BUFFET GRAN CHINA,,Restaurantes con servicio de preparación de alimentos a la carta o de comida corrida,6 a 10 personas,CALLE,NICOLAS BRAVO,,,CENTRO,23000,"LA PAZ, La Paz, BAJA CALIFORNIA SUR",6121295881,BUFFETGRANCHINA@HOTMAIL.COM,,Fijo,-110.31346144,24.15487473,,,,Baja California Sur
03003722514002132000000000U7,8334758,TACOS DE ASERRIN EL NUEVO MILENIO,TAQUERIA EL NUEVO MILENIO ,Restaurantes con servicio de preparación de tacos y tortas,6 a 10 personas,CALLE,AQUILES SERDAN,,,ZONA COMERCIAL,23000,"LA PAZ, La Paz, BAJA CALIFORNIA SUR",,,,Fijo,-110.31224770,24.16112027,,,,Baja California Sur
03003722511001812000000000U1,8403295,ESQUINA GAUCHA,,Restaurantes con servicio de preparación de alimentos a la carta o de comida corrida,6 a 10 personas,CALLE,IGNACIO MANUEL ALTAMIRANO,,,ZONA CENTRO,23000,"LA PAZ, La Paz, BAJA CALIFORNIA SUR",,ESQUINA.GAUCHA@HOTMAIL.COM,,Fijo,-110.31257988,24.15545545,,,,Baja California Sur
03003722512000531000000000U6,6916835,TAVARUA PARRILLA BAR,,Restaurantes con servicio de preparación de pescados y mariscos,0 a 5 personas,CALLE,GUILLERMO PRIETO,,,ZONA CENTRO,23000,"LA PAZ, La Paz, BAJA CALIFORNIA SUR",6121695298,,,Fijo,-110.31155310,24.16016502,,,,Baja California Sur
03003722511002231000000000M3,8334659,JR FRANQUISIAS,,Restaurantes con servicio de preparación de alimentos a la carta o de comida corrida,0 a 5 personas,CALLE,IGNACIO MANUEL ALTAMIRANO,,,CENTRO,23000,"LA PAZ, La Paz, BAJA CALIFORNIA SUR",,,WWW.RIBSJR.COM,Fijo,-110.31273622,24.15526521,,,,Baja California Sur
03003722511002242000000000S0,8334699,BOCADOZ,,Restaurantes con servicio de preparación de alimentos a la carta o de comida corrida,6 a 10 personas,CALLE,IGNACIO MANUEL ALTAMIRANO,,,CENTRO,23000,"LA PAZ, La Paz, BAJA CALIFORNIA SUR",,BOCADOZ_2015@OUTLOOK.COM,,Fijo,-110.31282940,24.15515181,,,,Baja California Sur
03003813110000441000000000U1,9369560,CANIRAC,CAMARA NACIONAL DE LA INDUSTRIA DE RESTAURANTES Y ES CAMARA,"Asociaciones, organizaciones y cámaras de productores, comerciantes y prestadores de servicios",0 a 5 personas,CALLE,IGNACIO ALLENDE,,,CENTRO,23000,"LA PAZ, La Paz, BAJA CALIFORNIA SUR",,JAVIER@CANIRACLAPAZ.ORG,,Fijo,-110.31648515,24.15412213,,,,Baja California Sur
03003722110000403001000000U1,163877,RESTAURANTE LOS MAGUEYES,GRUPO AGP S DE RL DE CV,Restaurantes con servicio de preparación de alimentos a la carta o de comida corrida,0 a 5 personas,CALLE,IGNACIO ALLENDE,,,CENTRO,23000,"LA PAZ, La Paz, BAJA CALIFORNIA SUR",6121287843,ARTEDIS_BCS@YAHOO.COM.MX,,Fijo,-110.31646211,24.15410598,,,,Baja California Sur
03003722511001171001000000M2,173811,LA ESQUINA DEL CHEF,,Restaurantes con servicio de preparación de alimentos a la carta o de comida corrida,6 a 10 personas,CALLE,INDEPENDENCIA,0,0,CENTRO,23000,"LA PAZ, La Paz, BAJA CALIFORNIA SUR",,,,Fijo,-110.31531017,24.16294045,,,,Baja California Sur
03003722518001191000000000U5,9386029,COCINA JACARANDA,,Restaurantes que preparan otro tipo de alimentos para llevar,0 a 5 personas,CALLE,16 DE SEPTIEMBRE,,,CENTRO,,"LA PAZ, La Paz, BAJA CALIFORNIA SUR",,,,Fijo,-110.31120685,24.15727869,,,,Baja California Sur
03003722514000491010000000U9,173958,TACOS EL ESTADIO II,,Restaurantes con servicio de preparación de pescados y mariscos,0 a 5 personas,CALLE,GUILLERMO PRIETO,415,,ZONA CENTRO,23000,"LA PAZ, La Paz, BAJA CALIFORNIA SUR",6121405190,,,Fijo,-110.31143283,24.16031069,,,,Baja California Sur
04002722511001093000000000U9,8850651,RESTAURANTE MENTA DELIREST,WANDERLUST HYGGE SA DE CV,Restaurantes con servicio de preparación de alimentos a la carta o de comida corrida,11 a 30 personas,CALLE,59,,,CENTRO,24000,"SAN FRANCISCO DE CAMPECHE, Campeche, CAMPECHE",,INFO@PEPPERMENTA.COM,,Fijo,-90.53798489,19.84500573,,,,Campeche
04002722513000662000000000U8,188263,LONCHERIA FRESHN GREEN,,Restaurantes con servicio de preparación de antojitos,6 a 10 personas,CALLE,59,,,CENTRO,24000,"SAN FRANCISCO DE CAMPECHE, Campeche, CAMPECHE",,COCO2116@HOTMAIL.COM,,Fijo,-90.53801499,19.84493791,,,,Campeche
04002722511001431000000000U1,9353113,SUKI SHJUSHI,,Restaurantes con servicio de preparación de alimentos a la carta o de comida corrida,0 a 5 personas,CALLE,59,9,,COLONIA CENTRO,24000,"SAN FRANCISCO DE CAMPECHE, Campeche, CAMPECHE",9811788078,SUKISUSHI03@GMAIL.COM,,Fijo,-90.53791898,19.84488304,,,,Campeche
04002722514001331000000000U7,210184,ANTOJITOS MARTITA,,Restaurantes con servicio de preparación de tacos y tortas,0 a 5 personas,CALLE,10,,,CENTRO,24000,"SAN FRANCISCO DE CAMPECHE, Campeche, CAMPECHE",,MARTHAAVILAESCAMILLA@HOTMAIL.COM,,Fijo,-90.53838264,19.84482428,,,,Campeche
04002722517003303000000000U7,9347858,PATRONIS BAR,,"Restaurantes con servicio de preparación de pizzas, hamburguesas, hot dogs y pollos rostizados para llevar",11 a 30 personas,CALLE,59,,,CENTRO,,"SAN FRANCISCO DE CAMPECHE, Campeche, CAMPECHE",9811031866,FACTURAPATRONIS@GMAIL.COM,,Fijo,-90.53823705,19.84546334,,,,Campeche
04002463211003432011000000U7,210228,RESTAURANTE LUZ DE LUNA,,Restaurantes con servicio de preparación de alimentos a la carta o de comida corrida,6 a 10 personas,CALLE,59,,,CENTRO,24000,"SAN FRANCISCO DE CAMPECHE, Campeche, CAMPECHE",,LACUJA7@HOTMAIL.COM,RESTAURANTELUZDELUNA.COM,Fijo,-90.53784169,19.84462591,,,,Campeche
04002722511000753000000000U9,7321386,BODEGA 59,,Restaurantes con servicio de preparación de alimentos a la carta o de comida corrida,11 a 30 personas,PEATONAL,59,0,0,CENTRO,24000,"SAN FRANCISCO DE CAMPECHE, Campeche, CAMPECHE",9811100315,BODEGA59@HOTMAIL.COM,,Fijo,-90.53832222,19.84550903,,,,Campeche
04002722219005551000000000U2,188267,RESTAURANTE AMBIGU,,Restaurantes con servicio de preparación de alimentos a la carta o de comida corrida,6 a 10 personas,CALLE,59,,,CENTRO,24000,"SAN FRANCISCO DE CAMPECHE, Campeche, CAMPECHE",,,,Fijo,-90.53782729,19.84459998,,,,Campeche
04002722514003131000000000S9,8161036,TAQUERIA EL HIDALGUENSE,,Restaurantes con servicio de preparación de tacos y tortas,0 a 5 personas,CALLE,10,,,CIUDAD AMURALLADA CENTRO,24000,"SAN FRANCISCO DE CAMPECHE, Campeche, CAMPECHE",9818211895,,,Fijo,-90.53761452,19.84525364,,,,Campeche
04002722219006902000000000U6,188246,PAYS CLAUDIA JUGOS Y ANTOJITOS,,Restaurantes con servicio de preparación de tacos y tortas,0 a 5 personas,CALLE,10,,,CENTRO,24000,"SAN FRANCISCO DE CAMPECHE, Campeche, CAMPECHE",9811037644,,,Fijo,-90.53867268,19.84467827,,,,Campeche
04002465313000071010000000U8,188245,ANTOJITOS Y ABARROTES PUERTA DE MAR II,,Restaurantes con servicio de preparación de antojitos,0 a 5 personas,CALLE,10,,,CENTRO,24000,"SAN FRANCISCO DE CAMPECHE, Campeche, CAMPECHE",,,,Fijo,-90.53873553,19.84464663,,,,Campeche
04002722516000561000000000U5,9352663,SUBWAY CALLE 59,,Restaurantes de autoservicio,0 a 5 personas,CALLE,59,2,,CENTRO,24000,"SAN FRANCISCO DE CAMPECHE, Campeche, CAMPECHE",9811434379,SUBWAYSANTALUCIA@HOTMAIL.COM,,Fijo,-90.53843199,19.84571288,,,,Campeche
04002722511001453000000000U5,9356783,RESTAURANT ADUANA VASCONCELOS,GRUPO PATRONIS SA DE CV,Restaurantes con servicio de preparación de alimentos a la carta o de comida corrida,11 a 30 personas,CALLE,59,1,0,CENTRO,24000,"SAN FRANCISCO DE CAMPECHE, Campeche, CAMPECHE",9811131935,VENTASADUANAVASCONCELOS@GMAIL.COM,,Fijo,-90.53840180,19.84576125,,,,Campeche
04002722110000634001049196S2,188120,MARGANZO RESTAURANTE,GRUPO GANZO SA DE CV,Restaurantes con servicio de preparación de alimentos a la carta o de comida corrida,31 a 50 personas,CALLE,8,267,,CIUDAD AMURALLADA CENTRO,24000,"SAN FRANCISCO DE CAMPECHE, Campeche, CAMPECHE",,OPERACIONES@MARGANZO.COM,,Fijo,-90.53826476,19.84582661,,,,Campeche
